Access Times/Azimuth Elevation Range Report.txt

                                                                          30 Sep 2017 19:29:11
 AGI Educational Alliance Partner
Place-Ames-Sensor-Ames_Ground_Station-To-Satellite-CySat1:  Inview Azimuth, Elevation, & Range


Ames_Ground_Station-To-CySat1 - AER reported in the object's default AER frame
------------------------------------------------------------------------------
                         Time (UTCG)          Azimuth (deg)    Elevation (deg)     Range (km)
                  ------------------------    -------------    ---------------    -----------
                  30 Sep 2017 23:22:19.732          192.769             20.179     999.999750
                  30 Sep 2017 23:23:19.000          169.508             31.004     740.809296
                  30 Sep 2017 23:24:19.000          126.532             35.232     676.090698
                  30 Sep 2017 23:25:19.000           92.485             25.573     856.212190
                  30 Sep 2017 23:25:48.184           83.285             20.442     999.986073

Global Statistics
-----------------
Min Elevation     30 Sep 2017 23:22:19.732          192.769             20.179     999.999750
Max Elevation     30 Sep 2017 23:24:04.351          137.795             35.819     667.493797
Mean Elevation                                                          26.486               
Min Range         30 Sep 2017 23:24:03.959          138.100             35.818     667.487929
Max Range         30 Sep 2017 23:22:19.732          192.769             20.179     999.999750
Mean Range                                                                         854.619601

                         Time (UTCG)          Azimuth (deg)    Elevation (deg)     Range (km)
                  ------------------------    -------------    ---------------    -----------
                   1 Oct 2017 00:58:54.604          283.558             20.471     999.999276
                   1 Oct 2017 00:59:54.000          308.294             30.131     763.656509
                   1 Oct 2017 01:00:54.000          348.754             32.596     722.182812
                   1 Oct 2017 01:01:54.000           19.945             23.846     906.230789
                   1 Oct 2017 01:02:13.873           26.380             20.648     999.988846

Global Statistics
-----------------
Min Elevation      1 Oct 2017 00:58:54.604          283.558             20.471     999.999276
Max Elevation      1 Oct 2017 01:00:34.535          335.137             33.430     708.460175
Mean Elevation                                                          25.538               
Min Range          1 Oct 2017 01:00:34.225          334.915             33.430     708.456774
Max Range          1 Oct 2017 00:58:54.604          283.558             20.471     999.999276
Mean Range                                                                         878.411646

                         Time (UTCG)          Azimuth (deg)    Elevation (deg)     Range (km)
                  ------------------------    -------------    ---------------    -----------
                   1 Oct 2017 05:50:00.020          310.643             20.721     999.997621
                   1 Oct 2017 05:51:00.000          317.614             38.355     643.298257
                   1 Oct 2017 05:52:00.000           12.644             71.974     437.439833
                   1 Oct 2017 05:53:00.000          105.616             44.373     577.807341
                   1 Oct 2017 05:54:00.000          115.021             23.357     916.986926
                   1 Oct 2017 05:54:13.110          115.943             20.542     999.995497

Global Statistics
-----------------
Min Elevation      1 Oct 2017 05:54:13.110          115.943             20.542     999.995518
Max Elevation      1 Oct 2017 05:52:06.479           33.265             73.066     434.924588
Mean Elevation                                                          36.554               
Min Range          1 Oct 2017 05:52:06.579           33.596             73.066     434.924011
Max Range          1 Oct 2017 05:50:00.020          310.643             20.721     999.997621
Mean Range                                                                         762.587579

                         Time (UTCG)          Azimuth (deg)    Elevation (deg)     Range (km)
                  ------------------------    -------------    ---------------    -----------
                   2 Oct 2017 00:06:12.686          241.160             20.295     999.992415
                   2 Oct 2017 00:07:12.000          245.977             37.813     642.663653
                   2 Oct 2017 00:08:12.000          292.485             75.545     426.724473
                   2 Oct 2017 00:09:12.000           43.234             45.815     562.968160
                   2 Oct 2017 00:10:12.000           50.338             23.855     903.785978
                   2 Oct 2017 00:10:27.106           51.112             20.573     999.990492

Global Statistics
-----------------
Min Elevation      2 Oct 2017 00:06:12.686          241.160             20.295     999.992415
Max Elevation      2 Oct 2017 00:08:20.023          326.159             77.896     423.012058
Mean Elevation                                                          37.316               
Min Range          2 Oct 2017 00:08:19.880          325.480             77.895     423.010835
Max Range          2 Oct 2017 00:06:12.686          241.160             20.295     999.992415
Mean Range                                                                         756.020862

                         Time (UTCG)          Azimuth (deg)    Elevation (deg)     Range (km)
                  ------------------------    -------------    ---------------    -----------
                   2 Oct 2017 04:58:15.121          335.351             20.756     999.976129
                   2 Oct 2017 04:59:15.000            1.073             29.743     776.328219
                   2 Oct 2017 05:00:15.000           40.122             31.058     751.438584
                   2 Oct 2017 05:01:15.000           69.403             22.590     941.993199
                   2 Oct 2017 05:01:27.508           73.443             20.665     999.987395

Global Statistics
-----------------
Min Elevation      2 Oct 2017 05:01:27.508           73.443             20.665     999.987436
Max Elevation      2 Oct 2017 04:59:51.149           24.305             32.175     732.505344
Mean Elevation                                                          24.962               
Min Range          2 Oct 2017 04:59:51.324           24.423             32.175     732.504296
Max Range          2 Oct 2017 05:01:27.508           73.443             20.665     999.987436
Mean Range                                                                         893.944705

                         Time (UTCG)          Azimuth (deg)    Elevation (deg)     Range (km)
                  ------------------------    -------------    ---------------    -----------
                   2 Oct 2017 06:34:35.325          279.448             20.645     999.984729
                   2 Oct 2017 06:35:35.000          257.133             32.514     723.870433
                   2 Oct 2017 06:36:35.000          211.692             38.266     641.124256
                   2 Oct 2017 06:37:35.000          174.788             27.469     815.581643
                   2 Oct 2017 06:38:11.593          163.487             20.449     999.982922

Global Statistics
-----------------
Min Elevation      2 Oct 2017 06:38:11.593          163.487             20.449     999.982922
Max Elevation      2 Oct 2017 06:36:23.202          221.623             38.727     635.805339
Mean Elevation                                                          27.869               
Min Range          2 Oct 2017 06:36:23.456          221.407             38.727     635.802721
Max Range          2 Oct 2017 06:34:35.325          279.448             20.645     999.984729
Mean Range                                                                         836.108797

                         Time (UTCG)          Azimuth (deg)    Elevation (deg)     Range (km)
                  ------------------------    -------------    ---------------    -----------
                   2 Oct 2017 23:14:33.638          192.887             20.179     999.996089
                   2 Oct 2017 23:15:33.000          169.610             31.052     739.976645
                   2 Oct 2017 23:16:33.000          126.547             35.309     675.007855
                   2 Oct 2017 23:17:33.000           92.442             25.615     855.222825
                   2 Oct 2017 23:18:02.356           83.197             20.442     999.998110

Global Statistics
-----------------
Min Elevation      2 Oct 2017 23:14:33.638          192.887             20.179     999.996089
Max Elevation      2 Oct 2017 23:16:18.387          137.811             35.896     666.440190
Mean Elevation                                                          26.519               
Min Range          2 Oct 2017 23:16:17.997          138.116             35.896     666.434351
Max Range          2 Oct 2017 23:18:02.356           83.197             20.442     999.998362
Mean Range                                                                         854.040305

                         Time (UTCG)          Azimuth (deg)    Elevation (deg)     Range (km)
                  ------------------------    -------------    ---------------    -----------
                   3 Oct 2017 00:51:08.792          283.646             20.472     999.984032
                   3 Oct 2017 00:52:08.000          308.297             30.084     764.525899
                   3 Oct 2017 00:53:08.000          348.694             32.562     722.737976
                   3 Oct 2017 00:54:08.000           19.889             23.841     906.378185
                   3 Oct 2017 00:54:27.863           26.329             20.648     999.981349

Global Statistics
-----------------
Min Elevation      3 Oct 2017 00:51:08.792          283.646             20.472     999.984032
Max Elevation      3 Oct 2017 00:52:48.623          335.156             33.387     709.148903
Mean Elevation                                                          25.521               
Min Range          3 Oct 2017 00:52:48.313          334.935             33.386     709.145497
Max Range          3 Oct 2017 00:51:08.792          283.646             20.472     999.984032
Mean Range                                                                         878.721488

                         Time (UTCG)          Azimuth (deg)    Elevation (deg)     Range (km)
                  ------------------------    -------------    ---------------    -----------
                   3 Oct 2017 05:42:14.068          310.591             20.722     999.976683
                   3 Oct 2017 05:43:14.000          317.492             38.343     643.432004
                   3 Oct 2017 05:44:14.000           12.299             72.086     437.179031
                   3 Oct 2017 05:45:14.000          105.764             44.432     577.269312
                   3 Oct 2017 05:46:14.000          115.109             23.377     916.437956
                   3 Oct 2017 05:46:27.195          116.030             20.542     999.995120

Global Statistics
-----------------
Min Elevation      3 Oct 2017 05:46:27.195          116.030             20.542     999.995141
Max Elevation      3 Oct 2017 05:44:20.544           33.282             73.210     434.612000
Mean Elevation                                                          36.584               
Min Range          3 Oct 2017 05:44:20.644           33.616             73.210     434.611421
Max Range          3 Oct 2017 05:46:27.195          116.030             20.542     999.995141
Mean Range                                                                         762.381684

                         Time (UTCG)          Azimuth (deg)    Elevation (deg)     Range (km)
                  ------------------------    -------------    ---------------    -----------
                   3 Oct 2017 23:58:26.763          241.247             20.295     999.999323
                   3 Oct 2017 23:59:26.000          246.113             37.774     643.152188
                   4 Oct 2017 00:00:26.000          292.637             75.386     427.014536
                   4 Oct 2017 00:01:26.000           43.072             45.830     562.843794
                   4 Oct 2017 00:02:26.000           50.272             23.866     903.490884
                   4 Oct 2017 00:02:41.155           51.059             20.573     999.990057

Global Statistics
-----------------
Min Elevation      3 Oct 2017 23:58:26.763          241.247             20.295     999.999323
Max Elevation      4 Oct 2017 00:00:34.086          326.176             77.743     423.244731
Mean Elevation                                                          37.288               
Min Range          4 Oct 2017 00:00:33.943          325.506             77.742     423.243506
Max Range          3 Oct 2017 23:58:26.763          241.247             20.295     999.999323
Mean Range                                                                         756.081797

                         Time (UTCG)          Azimuth (deg)    Elevation (deg)     Range (km)
                  ------------------------    -------------    ---------------    -----------
                   4 Oct 2017 04:50:29.108          335.299             20.756     999.976059
                   4 Oct 2017 04:51:29.000            1.011             29.766     775.895399
                   4 Oct 2017 04:52:29.000           40.105             31.103     750.633525
                   4 Oct 2017 04:53:29.000           69.430             22.622     941.070922
                   4 Oct 2017 04:53:41.700           73.531             20.665     999.987355

Global Statistics
-----------------
Min Elevation      4 Oct 2017 04:53:41.700           73.531             20.665     999.987396
Max Elevation      4 Oct 2017 04:52:05.239           24.324             32.216     731.823353
Mean Elevation                                                          24.982               
Min Range          4 Oct 2017 04:52:05.413           24.442             32.215     731.822306
Max Range          4 Oct 2017 04:53:41.700           73.531             20.665     999.987396
Mean Range                                                                         893.512652

                         Time (UTCG)          Azimuth (deg)    Elevation (deg)     Range (km)
                  ------------------------    -------------    ---------------    -----------
                   4 Oct 2017 06:26:49.481          279.365             20.645     999.984811
                   4 Oct 2017 06:27:49.000          257.096             32.451     724.888209
                   4 Oct 2017 06:28:49.000          211.767             38.188     642.085779
                   4 Oct 2017 06:29:49.000          174.898             27.441     816.190787
                   4 Oct 2017 06:30:25.516          163.601             20.449     999.983099

Global Statistics
-----------------
Min Elevation      4 Oct 2017 06:30:25.516          163.601             20.449     999.983099
Max Elevation      4 Oct 2017 06:28:37.241          221.640             38.643     636.811169
Mean Elevation                                                          27.835               
Min Range          4 Oct 2017 06:28:37.497          221.422             38.643     636.808537
Max Range          4 Oct 2017 06:26:49.481          279.365             20.645     999.984811
Mean Range                                                                         836.626537

                         Time (UTCG)          Azimuth (deg)    Elevation (deg)     Range (km)
                  ------------------------    -------------    ---------------    -----------
                   4 Oct 2017 23:06:47.543          193.005             20.179     999.996269
                   4 Oct 2017 23:07:47.000          169.713             31.100     739.145319
                   4 Oct 2017 23:08:47.000          126.562             35.387     673.926439
                   4 Oct 2017 23:09:47.000           92.399             25.657     854.235342
                   4 Oct 2017 23:10:16.525           83.110             20.442     999.998405

Global Statistics
-----------------
Min Elevation      4 Oct 2017 23:06:47.543          193.005             20.179     999.996269
Max Elevation      4 Oct 2017 23:08:32.423          137.827             35.974     665.387844
Mean Elevation                                                          26.553               
Min Range          4 Oct 2017 23:08:32.034          138.132             35.974     665.382032
Max Range          4 Oct 2017 23:10:16.525           83.110             20.442     999.998660
Mean Range                                                                         853.460355

                         Time (UTCG)          Azimuth (deg)    Elevation (deg)     Range (km)
                  ------------------------    -------------    ---------------    -----------
                   5 Oct 2017 00:43:22.975          283.734             20.472     999.986303
                   5 Oct 2017 00:44:22.000          308.300             30.038     765.394852
                   5 Oct 2017 00:45:22.000          348.635             32.528     723.293860
                   5 Oct 2017 00:46:22.000           19.834             23.835     906.526917
                   5 Oct 2017 00:46:41.853           26.278             20.648     999.979443

Global Statistics
-----------------
Min Elevation      5 Oct 2017 00:43:22.975          283.734             20.472     999.986303
Max Elevation      5 Oct 2017 00:45:02.711          335.174             33.343     709.837399
Mean Elevation                                                          25.504               
Min Range          5 Oct 2017 00:45:02.400          334.954             33.343     709.833988
Max Range          5 Oct 2017 00:43:22.975          283.734             20.472     999.986303
Mean Range                                                                         879.036275

                         Time (UTCG)          Azimuth (deg)    Elevation (deg)     Range (km)
                  ------------------------    -------------    ---------------    -----------
                   5 Oct 2017 05:34:28.113          310.538             20.722     999.976676
                   5 Oct 2017 05:35:28.000          317.371             38.332     643.566365
                   5 Oct 2017 05:36:28.000           11.950             72.198     436.920775
                   5 Oct 2017 05:37:28.000          105.912             44.490     576.734155
                   5 Oct 2017 05:38:28.000          115.198             23.397     915.891609
                   5 Oct 2017 05:38:41.279          116.117             20.542     999.995136

Global Statistics
-----------------
Min Elevation      5 Oct 2017 05:38:41.279          116.117             20.542     999.995158
Max Elevation      5 Oct 2017 05:36:34.612           33.308             73.355     434.301576
Mean Elevation                                                          36.613               
Min Range          5 Oct 2017 05:36:34.709           33.636             73.355     434.301028
Max Range          5 Oct 2017 05:38:41.279          116.117             20.542     999.995158
Mean Range                                                                         762.180786

                         Time (UTCG)          Azimuth (deg)    Elevation (deg)     Range (km)
                  ------------------------    -------------    ---------------    -----------
                   5 Oct 2017 23:50:40.840          241.335             20.296     999.999482
                   5 Oct 2017 23:51:40.000          246.249             37.735     643.641712
                   5 Oct 2017 23:52:40.000          292.786             75.228     427.307721
                   5 Oct 2017 23:53:40.000           42.909             45.845     562.722874
                   5 Oct 2017 23:54:40.000           50.207             23.878     903.198441
                   5 Oct 2017 23:54:55.204           51.006             20.573     999.990115

Global Statistics
-----------------
Min Elevation      5 Oct 2017 23:50:40.840          241.335             20.296     999.999482
Max Elevation      5 Oct 2017 23:52:48.149          326.194             77.590     423.480316
Mean Elevation                                                          37.259               
Min Range          5 Oct 2017 23:52:48.006          325.532             77.589     423.479090
Max Range          5 Oct 2017 23:50:40.840          241.335             20.296     999.999482
Mean Range                                                                         756.143391

                         Time (UTCG)          Azimuth (deg)    Elevation (deg)     Range (km)
                  ------------------------    -------------    ---------------    -----------
                   6 Oct 2017 04:42:43.094          335.248             20.756     999.976077
                   6 Oct 2017 04:43:43.000            0.950             29.788     775.462737
                   6 Oct 2017 04:44:43.000           40.088             31.149     749.829011
                   6 Oct 2017 04:45:43.000           69.458             22.654     940.149659
                   6 Oct 2017 04:45:55.891           73.620             20.664     999.985884

Global Statistics
-----------------
Min Elevation      6 Oct 2017 04:45:55.891           73.620             20.664     999.985927
Max Elevation      6 Oct 2017 04:44:19.328           24.342             32.256     731.141226
Mean Elevation                                                          25.002               
Min Range          6 Oct 2017 04:44:19.502           24.461             32.256     731.140179
Max Range          6 Oct 2017 04:45:55.891           73.620             20.664     999.985927
Mean Range                                                                         893.080674

                         Time (UTCG)          Azimuth (deg)    Elevation (deg)     Range (km)
                  ------------------------    -------------    ---------------    -----------
                   6 Oct 2017 06:19:03.637          279.283             20.645     999.984890
                   6 Oct 2017 06:20:03.000          257.060             32.389     725.906531
                   6 Oct 2017 06:21:03.000          211.841             38.109     643.049485
                   6 Oct 2017 06:22:03.000          175.008             27.412     816.803414
                   6 Oct 2017 06:22:39.438          163.715             20.449     999.983317

Global Statistics
-----------------
Min Elevation      6 Oct 2017 06:22:39.438          163.715             20.449     999.983318
Max Elevation      6 Oct 2017 06:20:51.279          221.656             38.559     637.818672
Mean Elevation                                                          27.801               
Min Range          6 Oct 2017 06:20:51.536          221.438             38.559     637.816027
Max Range          6 Oct 2017 06:19:03.637          279.283             20.645     999.984890
Mean Range                                                                         837.145527

                         Time (UTCG)          Azimuth (deg)    Elevation (deg)     Range (km)
                  ------------------------    -------------    ---------------    -----------
                   6 Oct 2017 22:59:01.449          193.123             20.179     999.996419
                   6 Oct 2017 23:00:01.000          169.815             31.148     738.314145
                   6 Oct 2017 23:01:01.000          126.578             35.464     672.845238
                   6 Oct 2017 23:02:01.000           92.356             25.699     853.248848
                   6 Oct 2017 23:02:30.694           83.024             20.442     999.998733

Global Statistics
-----------------
Min Elevation      6 Oct 2017 22:59:01.449          193.123             20.179     999.996419
Max Elevation      6 Oct 2017 23:00:46.459          137.843             36.052     664.335512
Mean Elevation                                                          26.587               
Min Range          6 Oct 2017 23:00:46.071          138.148             36.052     664.329727
Max Range          6 Oct 2017 23:02:30.694           83.024             20.442     999.998991
Mean Range                                                                         852.880677

                         Time (UTCG)          Azimuth (deg)    Elevation (deg)     Range (km)
                  ------------------------    -------------    ---------------    -----------
                   7 Oct 2017 00:35:37.161          283.822             20.473     999.977528
                   7 Oct 2017 00:36:37.000          308.875             30.134     763.639860
                   7 Oct 2017 00:37:37.000          349.246             32.411     725.238771
                   7 Oct 2017 00:38:37.000           20.141             23.665     911.092099
                   7 Oct 2017 00:38:55.848           26.229             20.648     999.998941

Global Statistics
-----------------
Min Elevation      7 Oct 2017 00:35:37.161          283.822             20.473     999.977528
Max Elevation      7 Oct 2017 00:37:16.799          335.193             33.299     710.527143
Mean Elevation                                                          25.466               
Min Range          7 Oct 2017 00:37:16.488          334.972             33.299     710.523727
Max Range          7 Oct 2017 00:38:55.848           26.229             20.648     999.999033
Mean Range                                                                         879.989440

                         Time (UTCG)          Azimuth (deg)    Elevation (deg)     Range (km)
                  ------------------------    -------------    ---------------    -----------
                   7 Oct 2017 05:26:42.158          310.486             20.721     999.976669
                   7 Oct 2017 05:27:42.000          317.250             38.321     643.701745
                   7 Oct 2017 05:28:42.000           11.597             72.309     436.665563
                   7 Oct 2017 05:29:42.000          106.060             44.549     576.202170
                   7 Oct 2017 05:30:42.000          115.286             23.417     915.348026
                   7 Oct 2017 05:30:55.364          116.204             20.541     999.995153

Global Statistics
-----------------
Min Elevation      7 Oct 2017 05:30:55.364          116.204             20.541     999.995175
Max Elevation      7 Oct 2017 05:28:48.676           33.325             73.500     433.993872
Mean Elevation                                                          36.643               
Min Range          7 Oct 2017 05:28:48.773           33.657             73.499     433.993324
Max Range          7 Oct 2017 05:30:55.364          116.204             20.541     999.995175
Mean Range                                                                         761.981554

                         Time (UTCG)          Azimuth (deg)    Elevation (deg)     Range (km)
                  ------------------------    -------------    ---------------    -----------
                   7 Oct 2017 23:42:54.917          241.422             20.296     999.999701
                   7 Oct 2017 23:43:54.000          246.384             37.696     644.132862
                   7 Oct 2017 23:44:54.000          292.933             75.069     427.604391
                   7 Oct 2017 23:45:54.000           42.746             45.859     562.605232
                   7 Oct 2017 23:46:54.000           50.141             23.889     902.908268
                   7 Oct 2017 23:47:09.253           50.953             20.574     999.990176

Global Statistics
-----------------
Min Elevation      7 Oct 2017 23:42:54.917          241.422             20.296     999.999701
Max Elevation      7 Oct 2017 23:45:02.212          326.212             77.437     423.719103
Mean Elevation                                                          37.230               
Min Range          7 Oct 2017 23:45:02.069          325.557             77.436     423.717877
Max Range          7 Oct 2017 23:42:54.917          241.422             20.296     999.999701
Mean Range                                                                         756.206772

                         Time (UTCG)          Azimuth (deg)    Elevation (deg)     Range (km)
                  ------------------------    -------------    ---------------    -----------
                   8 Oct 2017 04:34:57.081          335.197             20.756     999.976095
                   8 Oct 2017 04:35:57.000            0.889             29.811     775.031964
                   8 Oct 2017 04:36:57.000           40.071             31.194     749.026355
                   8 Oct 2017 04:37:57.000           69.486             22.686     939.230067
                   8 Oct 2017 04:38:10.081           73.709             20.664     999.984148

Global Statistics
-----------------
Min Elevation      8 Oct 2017 04:38:10.081           73.709             20.664     999.984193
Max Elevation      8 Oct 2017 04:36:33.417           24.361             32.297     730.460503
Mean Elevation                                                          25.022               
Min Range          8 Oct 2017 04:36:33.591           24.480             32.297     730.459457
Max Range          8 Oct 2017 04:38:10.081           73.709             20.664     999.984193
Mean Range                                                                         892.649726

                         Time (UTCG)          Azimuth (deg)    Elevation (deg)     Range (km)
                  ------------------------    -------------    ---------------    -----------
                   8 Oct 2017 06:11:17.793          279.200             20.645     999.984968
                   8 Oct 2017 06:12:17.000          257.023             32.327     726.924636
                   8 Oct 2017 06:13:17.000          211.914             38.030     644.013919
                   8 Oct 2017 06:14:17.000          175.118             27.383     817.417923
                   8 Oct 2017 06:14:53.360          163.829             20.449     999.983556

Global Statistics
-----------------
Min Elevation      8 Oct 2017 06:14:53.360          163.829             20.449     999.983556
Max Elevation      8 Oct 2017 06:13:05.317          221.672             38.475     638.826498
Mean Elevation                                                          27.767               
Min Range          8 Oct 2017 06:13:05.575          221.455             38.475     638.823839
Max Range          8 Oct 2017 06:11:17.793          279.200             20.645     999.984968
Mean Range                                                                         837.665000

                         Time (UTCG)          Azimuth (deg)    Elevation (deg)     Range (km)
                  ------------------------    -------------    ---------------    -----------
                   8 Oct 2017 22:51:15.356          193.241             20.179     999.996574
                   8 Oct 2017 22:52:15.000          169.918             31.196     737.483518
                   8 Oct 2017 22:53:15.000          126.593             35.542     671.763735
                   8 Oct 2017 22:54:15.000           92.312             25.741     852.262194
                   8 Oct 2017 22:54:44.862           82.937             20.443     999.999067

Global Statistics
-----------------
Min Elevation      8 Oct 2017 22:51:15.356          193.241             20.179     999.996574
Max Elevation      8 Oct 2017 22:53:00.495          137.860             36.130     663.282897
Mean Elevation                                                          26.620               
Min Range          8 Oct 2017 22:53:00.109          138.164             36.130     663.277150
Max Range          8 Oct 2017 22:54:44.862           82.937             20.443     999.999328
Mean Range                                                                         852.301018

                         Time (UTCG)          Azimuth (deg)    Elevation (deg)     Range (km)
                  ------------------------    -------------    ---------------    -----------
                   9 Oct 2017 00:27:51.345          283.910             20.473     999.982752
                   9 Oct 2017 00:28:51.000          308.877             30.087     764.508844
                   9 Oct 2017 00:29:51.000          349.186             32.378     725.792228
                   9 Oct 2017 00:30:51.000           20.086             23.659     911.240068
                   9 Oct 2017 00:31:09.837           26.178             20.648     999.999054

Global Statistics
-----------------
Min Elevation      9 Oct 2017 00:27:51.345          283.910             20.473     999.982752
Max Elevation      9 Oct 2017 00:29:30.886          335.212             33.256     711.218701
Mean Elevation                                                          25.449               
Min Range          9 Oct 2017 00:29:30.574          334.991             33.255     711.215280
Max Range          9 Oct 2017 00:31:09.837           26.178             20.648     999.999146
Mean Range                                                                         880.304589

                         Time (UTCG)          Azimuth (deg)    Elevation (deg)     Range (km)
                  ------------------------    -------------    ---------------    -----------
                   9 Oct 2017 05:18:56.203          310.434             20.721     999.976661
                   9 Oct 2017 05:19:56.000          317.129             38.310     643.839544
                   9 Oct 2017 05:20:56.000           11.239             72.420     436.413953
                   9 Oct 2017 05:21:56.000          106.209             44.607     575.672635
                   9 Oct 2017 05:22:56.000          115.375             23.437     914.806025
                   9 Oct 2017 05:23:09.448          116.291             20.541     999.995169

Global Statistics
-----------------
Min Elevation      9 Oct 2017 05:23:09.448          116.291             20.541     999.995192
Max Elevation      9 Oct 2017 05:21:02.741           33.343             73.645     433.689250
Mean Elevation                                                          36.673               
Min Range          9 Oct 2017 05:21:02.838           33.677             73.644     433.688703
Max Range          9 Oct 2017 05:23:09.448          116.291             20.541     999.995192
Mean Range                                                                         761.783998

                         Time (UTCG)          Azimuth (deg)    Elevation (deg)     Range (km)
                  ------------------------    -------------    ---------------    -----------
                   9 Oct 2017 23:35:08.995          241.510             20.296     999.999970
                   9 Oct 2017 23:36:08.000          246.519             37.657     644.626919
                   9 Oct 2017 23:37:08.000          293.077             74.910     427.904668
                   9 Oct 2017 23:38:08.000           42.583             45.873     562.489598
                   9 Oct 2017 23:39:08.000           50.075             23.900     902.618725
                   9 Oct 2017 23:39:23.301           50.899             20.574     999.990245

Global Statistics
-----------------
Min Elevation      9 Oct 2017 23:35:08.995          241.510             20.296     999.999970
Max Elevation      9 Oct 2017 23:37:16.275          326.229             77.284     423.960975
Mean Elevation                                                          37.202               
Min Range          9 Oct 2017 23:37:16.132          325.582             77.283     423.959747
Max Range          9 Oct 2017 23:35:08.995          241.510             20.296     999.999970
Mean Range                                                                         756.271687

                         Time (UTCG)          Azimuth (deg)    Elevation (deg)     Range (km)
                  ------------------------    -------------    ---------------    -----------
                  10 Oct 2017 04:27:11.069          335.146             20.756     999.976113
                  10 Oct 2017 04:28:11.000            0.827             29.834     774.603925
                  10 Oct 2017 04:29:11.000           40.054             31.239     748.225466
                  10 Oct 2017 04:30:11.000           69.513             22.718     938.311302
                  10 Oct 2017 04:30:24.271           73.797             20.664     999.982409

Global Statistics
-----------------
Min Elevation     10 Oct 2017 04:30:24.271           73.797             20.664     999.982455
Max Elevation     10 Oct 2017 04:28:47.506           24.380             32.338     729.781480
Mean Elevation                                                          25.042               
Min Range         10 Oct 2017 04:28:47.680           24.499             32.338     729.780434
Max Range         10 Oct 2017 04:30:24.271           73.797             20.664     999.982455
Mean Range                                                                         892.219843

                         Time (UTCG)          Azimuth (deg)    Elevation (deg)     Range (km)
                  ------------------------    -------------    ---------------    -----------
                  10 Oct 2017 06:03:31.950          279.118             20.644     999.984759
                  10 Oct 2017 06:04:31.000          256.987             32.266     727.943034
                  10 Oct 2017 06:05:31.000          211.988             37.952     644.978357
                  10 Oct 2017 06:06:31.000          175.227             27.354     818.032719
                  10 Oct 2017 06:07:07.281          163.943             20.448     999.983815

Global Statistics
-----------------
Min Elevation     10 Oct 2017 06:07:07.281          163.943             20.448     999.983815
Max Elevation     10 Oct 2017 06:05:19.355          221.688             38.391     639.834169
Mean Elevation                                                          27.733               
Min Range         10 Oct 2017 06:05:19.614          221.471             38.391     639.831496
Max Range         10 Oct 2017 06:03:31.950          279.118             20.644     999.984759
Mean Range                                                                         838.184537

                         Time (UTCG)          Azimuth (deg)    Elevation (deg)     Range (km)
                  ------------------------    -------------    ---------------    -----------
                  10 Oct 2017 22:43:29.263          193.359             20.179     999.996735
                  10 Oct 2017 22:44:29.000          170.022             31.244     736.655406
                  10 Oct 2017 22:45:29.000          126.608             35.621     670.682942
                  10 Oct 2017 22:46:29.000           92.268             25.783     851.275271
                  10 Oct 2017 22:46:59.030           82.850             20.443     999.999405

Global Statistics
-----------------
Min Elevation     10 Oct 2017 22:43:29.263          193.359             20.179     999.996735
Max Elevation     10 Oct 2017 22:45:14.531          137.876             36.209     662.231334
Mean Elevation                                                          26.654               
Min Range         10 Oct 2017 22:45:14.146          138.180             36.209     662.225615
Max Range         10 Oct 2017 22:46:59.030           82.850             20.443     999.999669
Mean Range                                                                         851.721952

                         Time (UTCG)          Azimuth (deg)    Elevation (deg)     Range (km)
                  ------------------------    -------------    ---------------    -----------
                  11 Oct 2017 00:20:05.532          283.999             20.473     999.975838
                  11 Oct 2017 00:21:05.000          308.878             30.040     765.379088
                  11 Oct 2017 00:22:05.000          349.127             32.344     726.346609
                  11 Oct 2017 00:23:05.000           20.031             23.654     911.388271
                  11 Oct 2017 00:23:23.827           26.127             20.648     999.999261

Global Statistics
-----------------
Min Elevation     11 Oct 2017 00:20:05.532          283.999             20.473     999.975838
Max Elevation     11 Oct 2017 00:21:44.974          335.231             33.212     711.910776
Mean Elevation                                                          25.432               
Min Range         11 Oct 2017 00:21:44.662          335.010             33.212     711.907349
Max Range         11 Oct 2017 00:23:23.827           26.127             20.648     999.999353
Mean Range                                                                         880.617813

                         Time (UTCG)          Azimuth (deg)    Elevation (deg)     Range (km)
                  ------------------------    -------------    ---------------    -----------
                  11 Oct 2017 05:11:10.249          310.381             20.721     999.976654
                  11 Oct 2017 05:12:10.000          317.008             38.298     643.980774
                  11 Oct 2017 05:13:10.000           10.876             72.530     436.165933
                  11 Oct 2017 05:14:10.000          106.358             44.665     575.144390
                  11 Oct 2017 05:15:10.000          115.464             23.456     914.264152
                  11 Oct 2017 05:15:23.532          116.378             20.541     999.995185

Global Statistics
-----------------
Min Elevation     11 Oct 2017 05:15:23.532          116.378             20.541     999.995208
Max Elevation     11 Oct 2017 05:13:16.806           33.360             73.789     433.387526
Mean Elevation                                                          36.702               
Min Range         11 Oct 2017 05:13:16.903           33.697             73.789     433.386979
Max Range         11 Oct 2017 05:15:23.532          116.378             20.541     999.995208
Mean Range                                                                         761.587848

                         Time (UTCG)          Azimuth (deg)    Elevation (deg)     Range (km)
                  ------------------------    -------------    ---------------    -----------
                  11 Oct 2017 23:27:23.076          241.597             20.297     999.980814
                  11 Oct 2017 23:28:23.000          246.811             38.051     639.773941
                  11 Oct 2017 23:29:23.000          296.472             75.250     427.294043
                  11 Oct 2017 23:30:23.000           42.677             45.342     567.077842
                  11 Oct 2017 23:31:23.000           50.070             23.675     908.613032
                  11 Oct 2017 23:31:37.350           50.846             20.574     999.990326

Global Statistics
-----------------
Min Elevation     11 Oct 2017 23:27:23.076          241.597             20.297     999.980814
Max Elevation     11 Oct 2017 23:29:30.339          326.247             77.131     424.205442
Mean Elevation                                                          37.198               
Min Range         11 Oct 2017 23:29:30.196          325.607             77.130     424.204213
Max Range         11 Oct 2017 23:31:37.350           50.846             20.574     999.990351
Mean Range                                                                         757.121666

                         Time (UTCG)          Azimuth (deg)    Elevation (deg)     Range (km)
                  ------------------------    -------------    ---------------    -----------
                  12 Oct 2017 04:19:25.057          335.096             20.756     999.976132
                  12 Oct 2017 04:20:25.000            0.766             29.856     774.177425
                  12 Oct 2017 04:21:25.000           40.037             31.285     747.424701
                  12 Oct 2017 04:22:25.000           69.541             22.751     937.391733
                  12 Oct 2017 04:22:38.461           73.885             20.664     999.980661

Global Statistics
-----------------
Min Elevation     12 Oct 2017 04:22:38.461           73.885             20.664     999.980709
Max Elevation     12 Oct 2017 04:21:01.595           24.399             32.379     729.102628
Mean Elevation                                                          25.062               
Min Range         12 Oct 2017 04:21:01.769           24.518             32.378     729.101583
Max Range         12 Oct 2017 04:22:38.461           73.885             20.664     999.980709
Mean Range                                                                         891.790130

                         Time (UTCG)          Azimuth (deg)    Elevation (deg)     Range (km)
                  ------------------------    -------------    ---------------    -----------
                  12 Oct 2017 05:55:46.107          279.035             20.644     999.984840
                  12 Oct 2017 05:56:46.000          256.390             32.407     725.587478
                  12 Oct 2017 05:57:46.000          211.248             37.797     646.878573
                  12 Oct 2017 05:58:46.000          174.940             27.119     823.107723
                  12 Oct 2017 05:59:21.202          164.057             20.448     999.984097

Global Statistics
-----------------
Min Elevation     12 Oct 2017 05:59:21.202          164.057             20.448     999.984097
Max Elevation     12 Oct 2017 05:57:33.393          221.705             38.308     640.842790
Mean Elevation                                                          27.683               
Min Range         12 Oct 2017 05:57:33.653          221.487             38.308     640.840105
Max Range         12 Oct 2017 05:55:46.107          279.035             20.644     999.984840
Mean Range                                                                         839.108542

                         Time (UTCG)          Azimuth (deg)    Elevation (deg)     Range (km)
                  ------------------------    -------------    ---------------    -----------
                  12 Oct 2017 22:35:43.171          193.477             20.179     999.996901
                  12 Oct 2017 22:36:43.000          170.126             31.292     735.831300
                  12 Oct 2017 22:37:43.000          126.624             35.699     669.604429
                  12 Oct 2017 22:38:43.000           92.225             25.825     850.289256
                  12 Oct 2017 22:39:13.195           82.765             20.444     999.982684

Global Statistics
-----------------
Min Elevation     12 Oct 2017 22:35:43.171          193.477             20.179     999.996901
Max Elevation     12 Oct 2017 22:37:28.568          137.892             36.288     661.182418
Mean Elevation                                                          26.688               
Min Range         12 Oct 2017 22:37:28.184          138.196             36.287     661.176725
Max Range         12 Oct 2017 22:35:43.171          193.477             20.179     999.996901
Mean Range                                                                         851.140914

                         Time (UTCG)          Azimuth (deg)    Elevation (deg)     Range (km)
                  ------------------------    -------------    ---------------    -----------
                  13 Oct 2017 00:12:19.715          284.086             20.473     999.986803
                  13 Oct 2017 00:13:19.000          308.880             29.994     766.248908
                  13 Oct 2017 00:14:19.000          349.067             32.311     726.900017
                  13 Oct 2017 00:15:19.000           19.976             23.649     911.535103
                  13 Oct 2017 00:15:37.818           26.076             20.648     999.999556

Global Statistics
-----------------
Min Elevation     13 Oct 2017 00:12:19.715          284.086             20.473     999.986803
Max Elevation     13 Oct 2017 00:13:59.063          335.250             33.169     712.601470
Mean Elevation                                                          25.415               
Min Range         13 Oct 2017 00:13:58.750          335.028             33.168     712.598038
Max Range         13 Oct 2017 00:15:37.818           26.076             20.648     999.999648
Mean Range                                                                         880.934077

                         Time (UTCG)          Azimuth (deg)    Elevation (deg)     Range (km)
                  ------------------------    -------------    ---------------    -----------
                  13 Oct 2017 05:03:24.295          310.329             20.721     999.976647
                  13 Oct 2017 05:04:24.000          316.887             38.286     644.124882
                  13 Oct 2017 05:05:24.000           10.507             72.639     435.920893
                  13 Oct 2017 05:06:24.000          106.508             44.724     574.617122
                  13 Oct 2017 05:07:24.000          115.553             23.476     913.722302
                  13 Oct 2017 05:07:37.616          116.465             20.541     999.995201

Global Statistics
-----------------
Min Elevation     13 Oct 2017 05:07:37.616          116.465             20.541     999.995224
Max Elevation     13 Oct 2017 05:05:30.871           33.378             73.935     433.088103
Mean Elevation                                                          36.731               
Min Range         13 Oct 2017 05:05:30.968           33.718             73.934     433.087556
Max Range         13 Oct 2017 05:07:37.616          116.465             20.541     999.995224
Mean Range                                                                         761.392841

                         Time (UTCG)          Azimuth (deg)    Elevation (deg)     Range (km)
                  ------------------------    -------------    ---------------    -----------
                  13 Oct 2017 23:19:37.154          241.685             20.298     999.983185
                  13 Oct 2017 23:20:37.000          246.947             38.011     640.273311
                  13 Oct 2017 23:21:37.000          296.576             75.089     427.593543
                  13 Oct 2017 23:22:37.000           42.517             45.356     566.959426
                  13 Oct 2017 23:23:37.000           50.005             23.686     908.321176
                  13 Oct 2017 23:23:51.398           50.793             20.574     999.990411

Global Statistics
-----------------
Min Elevation     13 Oct 2017 23:19:37.154          241.685             20.298     999.983185
Max Elevation     13 Oct 2017 23:21:44.403          326.264             76.979     424.452153
Mean Elevation                                                          37.169               
Min Range         13 Oct 2017 23:21:44.259          325.632             76.978     424.450922
Max Range         13 Oct 2017 23:23:51.398           50.793             20.574     999.990437
Mean Range                                                                         757.186842

                         Time (UTCG)          Azimuth (deg)    Elevation (deg)     Range (km)
                  ------------------------    -------------    ---------------    -----------
                  14 Oct 2017 04:11:39.045          335.045             20.756     999.976150
                  14 Oct 2017 04:12:39.000            0.704             29.878     773.750471
                  14 Oct 2017 04:13:39.000           40.019             31.331     746.622591
                  14 Oct 2017 04:14:39.000           69.568             22.783     936.470668
                  14 Oct 2017 04:14:52.651           73.973             20.664     999.978896

Global Statistics
-----------------
Min Elevation     14 Oct 2017 04:14:52.651           73.973             20.664     999.978945
Max Elevation     14 Oct 2017 04:13:15.684           24.418             32.420     728.422202
Mean Elevation                                                          25.082               
Min Range         14 Oct 2017 04:13:15.858           24.537             32.419     728.421157
Max Range         14 Oct 2017 04:14:52.651           73.973             20.664     999.978945
Mean Range                                                                         891.359755

                         Time (UTCG)          Azimuth (deg)    Elevation (deg)     Range (km)
                  ------------------------    -------------    ---------------    -----------
                  14 Oct 2017 05:48:00.265          278.952             20.644     999.984921
                  14 Oct 2017 05:49:00.000          256.356             32.344     726.612108
                  14 Oct 2017 05:50:00.000          211.323             37.720     647.842150
                  14 Oct 2017 05:51:00.000          175.048             27.091     823.719761
                  14 Oct 2017 05:51:35.123          164.172             20.448     999.984402

Global Statistics
-----------------
Min Elevation     14 Oct 2017 05:51:35.123          164.172             20.448     999.984402
Max Elevation     14 Oct 2017 05:49:47.432          221.721             38.225     641.853894
Mean Elevation                                                          27.650               
Min Range         14 Oct 2017 05:49:47.692          221.503             38.225     641.851194
Max Range         14 Oct 2017 05:48:00.265          278.952             20.644     999.984921
Mean Range                                                                         839.628668

                         Time (UTCG)          Azimuth (deg)    Elevation (deg)     Range (km)
                  ------------------------    -------------    ---------------    -----------
                  14 Oct 2017 22:27:57.080          193.594             20.180     999.997035
                  14 Oct 2017 22:28:57.000          170.230             31.340     735.010729
                  14 Oct 2017 22:29:57.000          126.639             35.778     668.528719
                  14 Oct 2017 22:30:57.000           92.181             25.867     849.305370
                  14 Oct 2017 22:31:27.362           82.679             20.444     999.982669

Global Statistics
-----------------
Min Elevation     14 Oct 2017 22:27:57.080          193.594             20.180     999.997035
Max Elevation     14 Oct 2017 22:29:42.605          137.909             36.367     660.136416
Mean Elevation                                                          26.722               
Min Range         14 Oct 2017 22:29:42.222          138.212             36.366     660.130751
Max Range         14 Oct 2017 22:27:57.080          193.594             20.180     999.997035
Mean Range                                                                         850.564905

                         Time (UTCG)          Azimuth (deg)    Elevation (deg)     Range (km)
                  ------------------------    -------------    ---------------    -----------
                  15 Oct 2017 00:04:33.902          284.175             20.474     999.979476
                  15 Oct 2017 00:05:33.000          308.882             29.948     767.117279
                  15 Oct 2017 00:06:33.000          349.008             32.278     727.452170
                  15 Oct 2017 00:07:33.000           19.921             23.643     911.680975
                  15 Oct 2017 00:07:51.808           26.026             20.648     999.999894

Global Statistics
-----------------
Min Elevation     15 Oct 2017 00:04:33.902          284.175             20.474     999.979476
Max Elevation     15 Oct 2017 00:06:13.151          335.268             33.126     713.290219
Mean Elevation                                                          25.398               
Min Range         15 Oct 2017 00:06:12.839          335.048             33.125     713.286782
Max Range         15 Oct 2017 00:07:51.808           26.026             20.648     999.999987
Mean Range                                                                         881.245959

                         Time (UTCG)          Azimuth (deg)    Elevation (deg)     Range (km)
                  ------------------------    -------------    ---------------    -----------
                  15 Oct 2017 04:55:38.341          310.277             20.721     999.976640
                  15 Oct 2017 04:56:38.000          316.766             38.274     644.270400
                  15 Oct 2017 04:57:38.000           10.133             72.748     435.678274
                  15 Oct 2017 04:58:38.000          106.659             44.782     574.091625
                  15 Oct 2017 04:59:38.000          115.642             23.496     913.181740
                  15 Oct 2017 04:59:51.700          116.552             20.540     999.995217

Global Statistics
-----------------
Min Elevation     15 Oct 2017 04:59:51.700          116.552             20.540     999.995241
Max Elevation     15 Oct 2017 04:57:44.936           33.395             74.080     432.790603
Mean Elevation                                                          36.760               
Min Range         15 Oct 2017 04:57:45.032           33.738             74.080     432.790057
Max Range         15 Oct 2017 04:59:51.700          116.552             20.540     999.995241
Mean Range                                                                         761.198983

                         Time (UTCG)          Azimuth (deg)    Elevation (deg)     Range (km)
                  ------------------------    -------------    ---------------    -----------
                  15 Oct 2017 23:11:51.235          241.772             20.298     999.970959
                  15 Oct 2017 23:12:51.000          247.082             37.971     640.774065
                  15 Oct 2017 23:13:51.000          296.678             74.929     427.895748
                  15 Oct 2017 23:14:51.000           42.357             45.369     566.843369
                  15 Oct 2017 23:15:51.000           49.940             23.697     908.030822
                  15 Oct 2017 23:16:05.447           50.740             20.574     999.990499

Global Statistics
-----------------
Min Elevation     15 Oct 2017 23:11:51.235          241.772             20.298     999.970959
Max Elevation     15 Oct 2017 23:13:58.466          326.282             76.827     424.701203
Mean Elevation                                                          37.140               
Min Range         15 Oct 2017 23:13:58.323          325.657             76.826     424.699972
Max Range         15 Oct 2017 23:16:05.447           50.740             20.574     999.990525
Mean Range                                                                         757.250910

                         Time (UTCG)          Azimuth (deg)    Elevation (deg)     Range (km)
