Access Times/Ground Station to CySat1 Access Times Report.txt

                                                                              30 Sep 2017 19:26:05
 AGI Educational Alliance Partner
Place-Ames-Sensor-Ames_Ground_Station-To-Satellite-CySat1:  Access Summary Report


Ames_Ground_Station-To-CySat1
-----------------------------
                  Access        Start Time (UTCG)           Stop Time (UTCG)        Duration (sec)
                  ------    ------------------------    ------------------------    --------------
                       1    30 Sep 2017 23:22:19.732    30 Sep 2017 23:25:48.184           208.452
                       2     1 Oct 2017 00:58:54.604     1 Oct 2017 01:02:13.873           199.269
                       3     1 Oct 2017 05:50:00.020     1 Oct 2017 05:54:13.110           253.090
                       4     2 Oct 2017 00:06:12.686     2 Oct 2017 00:10:27.106           254.420
                       5     2 Oct 2017 04:58:15.121     2 Oct 2017 05:01:27.508           192.387
                       6     2 Oct 2017 06:34:35.325     2 Oct 2017 06:38:11.593           216.268
                       7     2 Oct 2017 23:14:33.638     2 Oct 2017 23:18:02.356           208.718
                       8     3 Oct 2017 00:51:08.792     3 Oct 2017 00:54:27.863           199.071
                       9     3 Oct 2017 05:42:14.068     3 Oct 2017 05:46:27.195           253.127
                      10     3 Oct 2017 23:58:26.763     4 Oct 2017 00:02:41.155           254.393
                      11     4 Oct 2017 04:50:29.108     4 Oct 2017 04:53:41.700           192.592
                      12     4 Oct 2017 06:26:49.481     4 Oct 2017 06:30:25.516           216.035
                      13     4 Oct 2017 23:06:47.543     4 Oct 2017 23:10:16.525           208.982
                      14     5 Oct 2017 00:43:22.975     5 Oct 2017 00:46:41.853           198.878
                      15     5 Oct 2017 05:34:28.113     5 Oct 2017 05:38:41.279           253.166
                      16     5 Oct 2017 23:50:40.840     5 Oct 2017 23:54:55.204           254.364
                      17     6 Oct 2017 04:42:43.094     6 Oct 2017 04:45:55.891           192.796
                      18     6 Oct 2017 06:19:03.637     6 Oct 2017 06:22:39.438           215.801
                      19     6 Oct 2017 22:59:01.449     6 Oct 2017 23:02:30.694           209.244
                      20     7 Oct 2017 00:35:37.161     7 Oct 2017 00:38:55.848           198.686
                      21     7 Oct 2017 05:26:42.158     7 Oct 2017 05:30:55.364           253.205
                      22     7 Oct 2017 23:42:54.917     7 Oct 2017 23:47:09.253           254.335
                      23     8 Oct 2017 04:34:57.081     8 Oct 2017 04:38:10.081           193.000
                      24     8 Oct 2017 06:11:17.793     8 Oct 2017 06:14:53.360           215.567
                      25     8 Oct 2017 22:51:15.356     8 Oct 2017 22:54:44.862           209.506
                      26     9 Oct 2017 00:27:51.345     9 Oct 2017 00:31:09.837           198.492
                      27     9 Oct 2017 05:18:56.203     9 Oct 2017 05:23:09.448           253.244
                      28     9 Oct 2017 23:35:08.995     9 Oct 2017 23:39:23.301           254.306
                      29    10 Oct 2017 04:27:11.069    10 Oct 2017 04:30:24.271           193.202
                      30    10 Oct 2017 06:03:31.950    10 Oct 2017 06:07:07.281           215.331
                      31    10 Oct 2017 22:43:29.263    10 Oct 2017 22:46:59.030           209.767
                      32    11 Oct 2017 00:20:05.532    11 Oct 2017 00:23:23.827           198.296
                      33    11 Oct 2017 05:11:10.249    11 Oct 2017 05:15:23.532           253.283
                      34    11 Oct 2017 23:27:23.076    11 Oct 2017 23:31:37.350           254.273
                      35    12 Oct 2017 04:19:25.057    12 Oct 2017 04:22:38.461           193.404
                      36    12 Oct 2017 05:55:46.107    12 Oct 2017 05:59:21.202           215.095
                      37    12 Oct 2017 22:35:43.171    12 Oct 2017 22:39:13.195           210.024
                      38    13 Oct 2017 00:12:19.715    13 Oct 2017 00:15:37.818           198.102
                      39    13 Oct 2017 05:03:24.295    13 Oct 2017 05:07:37.616           253.321
                      40    13 Oct 2017 23:19:37.154    13 Oct 2017 23:23:51.398           254.244
                      41    14 Oct 2017 04:11:39.045    14 Oct 2017 04:14:52.651           193.606
                      42    14 Oct 2017 05:48:00.265    14 Oct 2017 05:51:35.123           214.858
                      43    14 Oct 2017 22:27:57.080    14 Oct 2017 22:31:27.362           210.282
                      44    15 Oct 2017 00:04:33.902    15 Oct 2017 00:07:51.808           197.906
                      45    15 Oct 2017 04:55:38.341    15 Oct 2017 04:59:51.700           253.359
                      46    15 Oct 2017 23:11:51.235    15 Oct 2017 23:16:05.447           254.212
                      47    16 Oct 2017 04:03:53.032    16 Oct 2017 04:07:06.840           193.808
                      48    16 Oct 2017 05:40:14.423    16 Oct 2017 05:43:49.043           214.620
                      49    16 Oct 2017 22:20:10.989    16 Oct 2017 22:23:41.528           210.539
                      50    16 Oct 2017 23:56:48.088    17 Oct 2017 00:00:05.794           197.706
                      51    17 Oct 2017 04:47:52.387    17 Oct 2017 04:52:05.783           253.396
                      52    17 Oct 2017 23:04:05.313    17 Oct 2017 23:08:19.495           254.181
                      53    18 Oct 2017 03:56:07.020    18 Oct 2017 03:59:21.033           194.013
                      54    18 Oct 2017 05:32:28.582    18 Oct 2017 05:36:02.962           214.380
                      55    18 Oct 2017 22:12:24.899    18 Oct 2017 22:15:55.694           210.795
                      56    18 Oct 2017 23:49:02.272    18 Oct 2017 23:52:19.784           197.512
                      57    19 Oct 2017 04:40:06.433    19 Oct 2017 04:44:19.866           253.433
                      58    19 Oct 2017 22:56:19.391    19 Oct 2017 23:00:33.542           254.151
                      59    20 Oct 2017 03:48:21.008    20 Oct 2017 03:51:35.222           194.214
                      60    20 Oct 2017 05:24:42.741    20 Oct 2017 05:28:16.880           214.139
                      61    20 Oct 2017 22:04:38.809    20 Oct 2017 22:08:09.859           211.050
                      62    20 Oct 2017 23:41:16.456    20 Oct 2017 23:44:33.773           197.318
                      63    21 Oct 2017 04:32:20.479    21 Oct 2017 04:36:33.948           253.470
                      64    21 Oct 2017 22:48:33.470    21 Oct 2017 22:52:47.590           254.120
                      65    22 Oct 2017 03:40:34.996    22 Oct 2017 03:43:49.411           194.415
                      66    22 Oct 2017 05:16:56.900    22 Oct 2017 05:20:30.798           213.898
                      67    22 Oct 2017 21:56:52.719    22 Oct 2017 22:00:24.024           211.305
                      68    22 Oct 2017 23:33:30.642    22 Oct 2017 23:36:47.763           197.121
                      69    23 Oct 2017 04:24:34.525    23 Oct 2017 04:28:48.031           253.506
                      70    23 Oct 2017 22:40:47.551    23 Oct 2017 22:45:01.637           254.087
                      71    24 Oct 2017 03:32:48.984    24 Oct 2017 03:36:03.599           194.615
                      72    24 Oct 2017 05:09:11.060    24 Oct 2017 05:12:44.716           213.656
                      73    24 Oct 2017 21:49:06.630    24 Oct 2017 21:52:38.189           211.559
                      74    24 Oct 2017 23:25:44.833    24 Oct 2017 23:29:01.752           196.919
                      75    25 Oct 2017 04:16:48.571    25 Oct 2017 04:21:02.113           253.542
                      76    25 Oct 2017 22:33:01.629    25 Oct 2017 22:37:15.685           254.056
                      77    26 Oct 2017 03:25:02.973    26 Oct 2017 03:28:17.788           194.815
                      78    26 Oct 2017 05:01:25.220    26 Oct 2017 05:04:58.633           213.413
                      79    26 Oct 2017 21:41:20.542    26 Oct 2017 21:44:52.353           211.811
                      80    26 Oct 2017 23:17:59.019    26 Oct 2017 23:21:15.740           196.721
                      81    27 Oct 2017 04:09:02.618    27 Oct 2017 04:13:16.196           253.577
                      82    27 Oct 2017 22:25:15.711    27 Oct 2017 22:29:29.733           254.022
                      83    28 Oct 2017 03:17:16.962    28 Oct 2017 03:20:31.976           195.014
                      84    28 Oct 2017 04:53:39.381    28 Oct 2017 04:57:12.550           213.169
                      85    28 Oct 2017 21:33:34.455    28 Oct 2017 21:37:06.517           212.062
                      86    28 Oct 2017 23:10:13.207    28 Oct 2017 23:13:29.730           196.522
                      87    29 Oct 2017 04:01:16.665    29 Oct 2017 04:05:30.278           253.613
                      88    29 Oct 2017 22:17:29.791    29 Oct 2017 22:21:43.780           253.989
                      89    30 Oct 2017 03:09:30.951    30 Oct 2017 03:12:46.164           195.214
                      90    30 Oct 2017 04:45:53.542    30 Oct 2017 04:49:26.466           212.924
                      91    30 Oct 2017 21:25:48.368    30 Oct 2017 21:29:20.680           212.312
                      92    30 Oct 2017 23:02:27.393    30 Oct 2017 23:05:43.720           196.327
                      93    31 Oct 2017 03:53:30.712    31 Oct 2017 03:57:44.359           253.647
                      94    31 Oct 2017 22:09:43.868    31 Oct 2017 22:13:57.827           253.959
                      95     1 Nov 2017 03:01:44.939     1 Nov 2017 03:05:00.353           195.413
                      96     1 Nov 2017 04:38:07.704     1 Nov 2017 04:41:40.381           212.677
                      97     1 Nov 2017 21:18:02.282     1 Nov 2017 21:21:34.842           212.560
                      98     1 Nov 2017 22:54:41.581     1 Nov 2017 22:57:57.707           196.126
                      99     2 Nov 2017 03:45:44.759     2 Nov 2017 03:49:58.441           253.682
                     100     2 Nov 2017 22:01:57.949     2 Nov 2017 22:06:11.874           253.925
                     101     3 Nov 2017 02:53:58.928     3 Nov 2017 02:57:14.540           195.612
                     102     3 Nov 2017 04:30:21.866     3 Nov 2017 04:33:54.296           212.430
                     103     3 Nov 2017 21:10:16.196     3 Nov 2017 21:13:49.004           212.809
                     104     3 Nov 2017 22:46:55.765     3 Nov 2017 22:50:11.696           195.930
                     105     4 Nov 2017 03:37:58.806     4 Nov 2017 03:42:12.522           253.716
                     106     4 Nov 2017 21:54:12.029     4 Nov 2017 21:58:25.921           253.891
                     107     5 Nov 2017 02:46:12.917     5 Nov 2017 02:49:28.727           195.810
                     108     5 Nov 2017 04:22:36.028     5 Nov 2017 04:26:08.208           212.179
                     109     5 Nov 2017 21:02:30.110     5 Nov 2017 21:06:03.166           213.056
                     110     5 Nov 2017 22:39:09.953     5 Nov 2017 22:42:25.683           195.730
                     111     6 Nov 2017 03:30:12.853     6 Nov 2017 03:34:26.602           253.750
                     112     6 Nov 2017 21:46:26.111     6 Nov 2017 21:50:39.967           253.857
                     113     7 Nov 2017 02:38:26.907     7 Nov 2017 02:41:42.914           196.008
                     114     7 Nov 2017 04:14:50.191     7 Nov 2017 04:18:22.122           211.931
                     115     7 Nov 2017 20:54:44.025     7 Nov 2017 20:58:17.328           213.303
                     116     7 Nov 2017 22:31:24.142     7 Nov 2017 22:34:39.675           195.533
                     117     8 Nov 2017 03:22:26.901     8 Nov 2017 03:26:40.683           253.783
                     118     8 Nov 2017 21:38:40.192     8 Nov 2017 21:42:54.014           253.822
                     119     9 Nov 2017 02:30:40.897     9 Nov 2017 02:33:57.101           196.204
                     120     9 Nov 2017 04:07:04.355     9 Nov 2017 04:10:36.036           211.681
                     121     9 Nov 2017 20:46:57.941     9 Nov 2017 20:50:31.489           213.548
                     122     9 Nov 2017 22:23:38.331     9 Nov 2017 22:26:53.663           195.332
                     123    10 Nov 2017 03:14:40.948    10 Nov 2017 03:18:54.764           253.816
                     124    10 Nov 2017 21:30:54.274    10 Nov 2017 21:35:08.061           253.786
                     125    11 Nov 2017 02:22:54.886    11 Nov 2017 02:26:11.288           196.402
                     126    11 Nov 2017 03:59:18.519    11 Nov 2017 04:02:49.949           211.430
                     127    11 Nov 2017 20:39:11.858    11 Nov 2017 20:42:45.650           213.792
                     128    11 Nov 2017 22:15:52.520    11 Nov 2017 22:19:07.652           195.132
                     129    12 Nov 2017 03:06:54.996    12 Nov 2017 03:11:08.845           253.848
                     130    12 Nov 2017 21:23:08.356    12 Nov 2017 21:27:22.107           253.751
                     131    13 Nov 2017 02:15:08.876    13 Nov 2017 02:18:25.477           196.601
                     132    13 Nov 2017 03:51:32.683    13 Nov 2017 03:55:03.861           211.178
                     133    13 Nov 2017 20:31:25.775    13 Nov 2017 20:34:59.810           214.034
                     134    13 Nov 2017 22:08:06.708    13 Nov 2017 22:11:21.640           194.932
                     135    14 Nov 2017 02:59:09.044    14 Nov 2017 03:03:22.925           253.880
                     136    14 Nov 2017 21:15:22.439    14 Nov 2017 21:19:36.153           253.715
                     137    15 Nov 2017 02:07:22.866    15 Nov 2017 02:10:39.664           196.798
                     138    15 Nov 2017 03:43:46.848    15 Nov 2017 03:47:17.773           210.924
                     139    15 Nov 2017 20:23:39.693    15 Nov 2017 20:27:13.969           214.276
                     140    15 Nov 2017 22:00:20.897    15 Nov 2017 22:03:35.627           194.730
                     141    16 Nov 2017 02:51:23.092    16 Nov 2017 02:55:37.004           253.912
                     142    16 Nov 2017 21:07:36.521    16 Nov 2017 21:11:50.199           253.678
                     143    17 Nov 2017 01:59:36.855    17 Nov 2017 02:02:53.850           196.994
                     144    17 Nov 2017 03:36:01.013    17 Nov 2017 03:39:31.684           210.670
                     145    17 Nov 2017 20:15:53.611    17 Nov 2017 20:19:28.128           214.518
                     146    17 Nov 2017 21:52:35.086    17 Nov 2017 21:55:49.615           194.528
                     147    18 Nov 2017 02:43:37.140    18 Nov 2017 02:47:51.083           253.944
                     148    18 Nov 2017 20:59:50.603    18 Nov 2017 21:04:04.245           253.641
                     149    19 Nov 2017 01:51:50.846    19 Nov 2017 01:55:08.036           197.190
                     150    19 Nov 2017 03:28:15.179    19 Nov 2017 03:31:45.592           210.413
                     151    19 Nov 2017 20:08:07.529    19 Nov 2017 20:11:42.287           214.758
                     152    19 Nov 2017 21:44:49.278    19 Nov 2017 21:48:03.602           194.324
                     153    20 Nov 2017 02:35:51.184    20 Nov 2017 02:40:05.163           253.978
                     154    20 Nov 2017 20:52:04.686    20 Nov 2017 20:56:18.290           253.604
                     155    21 Nov 2017 01:44:04.836    21 Nov 2017 01:47:22.221           197.385
                     156    21 Nov 2017 03:20:29.345    21 Nov 2017 03:23:59.503           210.158
                     157    21 Nov 2017 20:00:21.448    21 Nov 2017 20:03:56.445           214.997
                     158    21 Nov 2017 21:37:03.466    21 Nov 2017 21:40:17.589           194.122
                     159    22 Nov 2017 02:28:05.233    22 Nov 2017 02:32:19.242           254.009
                     160    22 Nov 2017 20:44:18.770    22 Nov 2017 20:48:32.336           253.567
                     161    23 Nov 2017 01:36:18.827    23 Nov 2017 01:39:36.407           197.580
                     162    23 Nov 2017 03:12:43.512    23 Nov 2017 03:16:13.413           209.901
                     163    23 Nov 2017 19:52:35.368    23 Nov 2017 19:56:10.603           215.236
                     164    23 Nov 2017 21:29:17.657    23 Nov 2017 21:32:31.576           193.920
                     165    24 Nov 2017 02:20:19.282    24 Nov 2017 02:24:33.321           254.039
                     166    24 Nov 2017 20:36:32.853    24 Nov 2017 20:40:46.382           253.529
                     167    25 Nov 2017 01:28:32.818    25 Nov 2017 01:31:50.592           197.774
                     168    25 Nov 2017 03:04:57.679    25 Nov 2017 03:08:27.321           209.641
                     169    25 Nov 2017 19:44:49.289    25 Nov 2017 19:48:24.761           215.472
                     170    25 Nov 2017 21:21:31.852    25 Nov 2017 21:24:45.564           193.712
                     171    26 Nov 2017 02:12:33.330    26 Nov 2017 02:16:47.400           254.069
                     172    26 Nov 2017 20:28:46.937    26 Nov 2017 20:33:00.428           253.491
                     173    27 Nov 2017 01:20:46.808    27 Nov 2017 01:24:04.777           197.969
                     174    27 Nov 2017 02:57:11.847    27 Nov 2017 03:00:41.228           209.381
                     175    27 Nov 2017 19:37:03.210    27 Nov 2017 19:40:38.918           215.708
                     176    27 Nov 2017 21:13:46.042    27 Nov 2017 21:16:59.551           193.509
                     177    28 Nov 2017 02:04:47.379    28 Nov 2017 02:09:01.478           254.099
                     178    28 Nov 2017 20:21:01.023    28 Nov 2017 20:25:14.473           253.450
                     179    29 Nov 2017 01:13:00.799    29 Nov 2017 01:16:18.962           198.163
                     180    29 Nov 2017 02:49:26.016    29 Nov 2017 02:52:55.136           209.120
                     181    29 Nov 2017 19:29:17.131    29 Nov 2017 19:32:53.074           215.943
                     182    29 Nov 2017 21:06:00.232    29 Nov 2017 21:09:13.538           193.306
                     183    30 Nov 2017 01:57:01.428    30 Nov 2017 02:01:15.556           254.128
                     184    30 Nov 2017 20:13:15.106    30 Nov 2017 20:17:28.518           253.412
                     185     1 Dec 2017 01:05:14.790     1 Dec 2017 01:08:33.147           198.357
                     186     1 Dec 2017 02:41:40.184     1 Dec 2017 02:45:09.043           208.858
                     187     1 Dec 2017 19:21:31.053     1 Dec 2017 19:25:07.230           216.178
                     188     1 Dec 2017 20:58:14.423     1 Dec 2017 21:01:27.524           193.102
                     189     2 Dec 2017 01:49:15.477     2 Dec 2017 01:53:29.634           254.157
                     190     2 Dec 2017 20:05:29.189     2 Dec 2017 20:09:42.563           253.374
                     191     3 Dec 2017 00:57:28.781     3 Dec 2017 01:00:47.331           198.550
                     192     3 Dec 2017 02:33:54.353     3 Dec 2017 02:37:22.949           208.596
                     193     3 Dec 2017 19:13:44.975     3 Dec 2017 19:17:21.386           216.412
                     194     3 Dec 2017 20:50:28.614     3 Dec 2017 20:53:41.510           192.896
                     195     4 Dec 2017 01:41:29.526     4 Dec 2017 01:45:43.712           254.185
                     196     4 Dec 2017 19:57:43.275     4 Dec 2017 20:01:56.608           253.333
                     197     5 Dec 2017 00:49:42.773     5 Dec 2017 00:53:01.519           198.746
                     198     5 Dec 2017 02:26:08.523     5 Dec 2017 02:29:36.859           208.336
                     199     5 Dec 2017 19:05:58.898     5 Dec 2017 19:09:35.542           216.644
                     200     5 Dec 2017 20:42:42.805     5 Dec 2017 20:45:55.496           192.691
                     201     6 Dec 2017 01:33:43.576     6 Dec 2017 01:37:57.789           254.213
                     202     6 Dec 2017 19:49:57.360     6 Dec 2017 19:54:10.653           253.293
                     203     7 Dec 2017 00:41:56.765     7 Dec 2017 00:45:15.703           198.938
                     204     7 Dec 2017 02:18:22.693     7 Dec 2017 02:21:50.765           208.072
                     205     7 Dec 2017 18:58:12.822     7 Dec 2017 19:01:49.697           216.875
                     206     7 Dec 2017 20:34:56.997     7 Dec 2017 20:38:09.483           192.486
                     207     8 Dec 2017 01:25:57.626     8 Dec 2017 01:30:11.867           254.241
                     208     8 Dec 2017 19:42:11.445     8 Dec 2017 19:46:24.698           253.252
                     209     9 Dec 2017 00:34:10.756     9 Dec 2017 00:37:29.887           199.131
                     210     9 Dec 2017 02:10:36.864     9 Dec 2017 02:14:04.665           207.801
                     211     9 Dec 2017 18:50:26.746     9 Dec 2017 18:54:03.852           217.105
                     212     9 Dec 2017 20:27:11.189     9 Dec 2017 20:30:23.470           192.281
                     213    10 Dec 2017 01:18:11.676    10 Dec 2017 01:22:25.944           254.268
                     214    10 Dec 2017 19:34:25.531    10 Dec 2017 19:38:38.742           253.212
                     215    11 Dec 2017 00:26:24.748    11 Dec 2017 00:29:44.071           199.323
                     216    11 Dec 2017 02:02:51.036    11 Dec 2017 02:06:18.570           207.535
                     217    11 Dec 2017 18:42:40.671    11 Dec 2017 18:46:18.006           217.335
                     218    11 Dec 2017 20:19:25.381    11 Dec 2017 20:22:37.456           192.075
                     219    12 Dec 2017 01:10:25.725    12 Dec 2017 01:14:40.021           254.295
                     220    12 Dec 2017 19:26:39.616    12 Dec 2017 19:30:52.787           253.171
                     221    13 Dec 2017 00:18:38.739    13 Dec 2017 00:21:58.254           199.515
                     222    13 Dec 2017 01:55:05.207    13 Dec 2017 01:58:32.472           207.265
                     223    13 Dec 2017 18:34:54.596    13 Dec 2017 18:38:32.159           217.563
                     224    13 Dec 2017 20:11:39.573    13 Dec 2017 20:14:51.442           191.869
                     225    14 Dec 2017 01:02:39.775    14 Dec 2017 01:06:54.097           254.322
                     226    14 Dec 2017 19:18:53.702    14 Dec 2017 19:23:06.831           253.129
                     227    15 Dec 2017 00:10:52.731    15 Dec 2017 00:14:12.437           199.706
                     228    15 Dec 2017 01:47:19.379    15 Dec 2017 01:50:46.377           206.997
                     229    15 Dec 2017 18:27:08.521    15 Dec 2017 18:30:46.312           217.791
                     230    15 Dec 2017 20:03:53.765    15 Dec 2017 20:07:05.427           191.662
                     231    16 Dec 2017 00:54:53.825    16 Dec 2017 00:59:08.173           254.348
                     232    16 Dec 2017 19:11:07.788    16 Dec 2017 19:15:20.875           253.087
                     233    17 Dec 2017 00:03:06.723    17 Dec 2017 00:06:26.620           199.896
                     234    17 Dec 2017 01:39:33.552    17 Dec 2017 01:43:00.278           206.726
                     235    17 Dec 2017 18:19:22.447    17 Dec 2017 18:23:00.465           218.018
                     236    17 Dec 2017 19:56:07.958    17 Dec 2017 19:59:19.413           191.455
                     237    18 Dec 2017 00:47:07.875    18 Dec 2017 00:51:22.249           254.374
                     238    18 Dec 2017 19:03:21.874    18 Dec 2017 19:07:34.919           253.045
                     239    18 Dec 2017 23:55:20.716    18 Dec 2017 23:58:40.802           200.086
                     240    19 Dec 2017 01:31:47.725    19 Dec 2017 01:35:14.183           206.458
                     241    19 Dec 2017 18:11:36.374    19 Dec 2017 18:15:14.618           218.243
                     242    19 Dec 2017 19:48:22.151    19 Dec 2017 19:51:33.398           191.247
                     243    20 Dec 2017 00:39:21.926    20 Dec 2017 00:43:36.325           254.399
                     244    20 Dec 2017 18:55:35.961    20 Dec 2017 18:59:48.963           253.002
                     245    20 Dec 2017 23:47:34.709    20 Dec 2017 23:50:54.984           200.276
                     246    21 Dec 2017 01:24:01.899    21 Dec 2017 01:27:28.084           206.186
                     247    21 Dec 2017 18:03:50.302    21 Dec 2017 18:07:28.770           218.468
                     248    21 Dec 2017 19:40:36.345    21 Dec 2017 19:43:47.382           191.036
                     249    22 Dec 2017 00:31:35.977    22 Dec 2017 00:35:50.401           254.424
                     250    22 Dec 2017 18:47:50.048    22 Dec 2017 18:52:03.007           252.960
                     251    22 Dec 2017 23:39:48.701    22 Dec 2017 23:43:09.167           200.466
                     252    23 Dec 2017 01:16:16.073    23 Dec 2017 01:19:41.985           205.912
                     253    23 Dec 2017 17:56:04.230    23 Dec 2017 17:59:42.921           218.691
                     254    23 Dec 2017 19:32:50.539    23 Dec 2017 19:36:01.369           190.830
                     255    24 Dec 2017 00:23:50.028    24 Dec 2017 00:28:04.477           254.449
                     256    24 Dec 2017 18:40:04.135    24 Dec 2017 18:44:17.051           252.916
                     257    24 Dec 2017 23:32:02.694    24 Dec 2017 23:35:23.349           200.655
                     258    25 Dec 2017 01:08:30.248    25 Dec 2017 01:11:55.885           205.636
                     259    25 Dec 2017 17:48:18.159    25 Dec 2017 17:51:57.072           218.914
                     260    25 Dec 2017 19:25:04.733    25 Dec 2017 19:28:15.354           190.621
                     261    26 Dec 2017 00:16:04.079    26 Dec 2017 00:20:18.552           254.473
                     262    26 Dec 2017 18:32:18.222    26 Dec 2017 18:36:31.095           252.873
                     263    26 Dec 2017 23:24:16.686    26 Dec 2017 23:27:37.531           200.845
                     264    27 Dec 2017 01:00:44.424    27 Dec 2017 01:04:09.784           205.360
                     265    27 Dec 2017 17:40:32.087    27 Dec 2017 17:44:11.223           219.136
                     266    27 Dec 2017 19:17:18.927    27 Dec 2017 19:20:29.339           190.412
                     267    28 Dec 2017 00:08:18.129    28 Dec 2017 00:12:32.627           254.497
                     268    28 Dec 2017 18:24:32.309    28 Dec 2017 18:28:45.138           252.829
                     269    28 Dec 2017 23:16:30.679    28 Dec 2017 23:19:51.712           201.033
                     270    29 Dec 2017 00:52:58.600    29 Dec 2017 00:56:23.682           205.082
                     271    29 Dec 2017 17:32:46.016    29 Dec 2017 17:36:25.373           219.357
                     272    29 Dec 2017 19:09:33.119    29 Dec 2017 19:12:43.324           190.204
                     273    30 Dec 2017 00:00:32.180    30 Dec 2017 00:04:46.701           254.521
                     274    30 Dec 2017 18:16:46.399    30 Dec 2017 18:20:59.181           252.782
                     275    30 Dec 2017 23:08:44.672    30 Dec 2017 23:12:05.893           201.221
                     276    31 Dec 2017 00:45:12.776    31 Dec 2017 00:48:37.580           204.804
                     277    31 Dec 2017 17:24:59.946    31 Dec 2017 17:28:39.523           219.577
                     278    31 Dec 2017 19:01:47.318    31 Dec 2017 19:04:57.308           189.990
                     279    31 Dec 2017 23:52:46.232    31 Dec 2017 23:57:00.776           254.544
                     280     1 Jan 2018 18:09:00.487     1 Jan 2018 18:13:13.224           252.737
                     281     1 Jan 2018 23:00:58.665     1 Jan 2018 23:04:20.074           201.408
                     282     2 Jan 2018 00:37:26.952     2 Jan 2018 00:40:51.478           204.525
                     283     2 Jan 2018 17:17:13.877     2 Jan 2018 17:20:53.673           219.797
                     284     2 Jan 2018 18:54:01.513     2 Jan 2018 18:57:11.293           189.780
                     285     2 Jan 2018 23:45:00.284     2 Jan 2018 23:49:14.850           254.567
                     286     3 Jan 2018 18:01:14.576     3 Jan 2018 18:05:27.268           252.692
                     287     3 Jan 2018 22:53:12.659     3 Jan 2018 22:56:34.256           201.597
                     288     4 Jan 2018 00:29:41.130     4 Jan 2018 00:33:05.373           204.243
                     289     4 Jan 2018 17:09:27.808     4 Jan 2018 17:13:07.823           220.015
                     290     4 Jan 2018 18:46:15.707     4 Jan 2018 18:49:25.278           189.571
                     291     4 Jan 2018 23:37:14.335     4 Jan 2018 23:41:28.925           254.589
                     292     5 Jan 2018 17:53:28.665     5 Jan 2018 17:57:41.311           252.647
                     293     5 Jan 2018 22:45:26.653     5 Jan 2018 22:48:48.437           201.784
                     294     6 Jan 2018 00:21:55.309     6 Jan 2018 00:25:19.270           203.961
                     295     6 Jan 2018 17:01:41.740     6 Jan 2018 17:05:21.971           220.231
                     296     6 Jan 2018 18:38:29.902     6 Jan 2018 18:41:39.263           189.361
                     297     6 Jan 2018 23:29:28.387     6 Jan 2018 23:33:42.998           254.611
                     298     7 Jan 2018 17:45:42.753     7 Jan 2018 17:49:55.354           252.601
                     299     7 Jan 2018 22:37:40.646     7 Jan 2018 22:41:02.619           201.973
                     300     8 Jan 2018 00:14:09.487     8 Jan 2018 00:17:33.165           203.678
                     301     8 Jan 2018 16:53:55.672     8 Jan 2018 16:57:36.120           220.448
                     302     8 Jan 2018 18:30:44.100     8 Jan 2018 18:33:53.247           189.148
                     303     8 Jan 2018 21:46:55.475     8 Jan 2018 21:46:57.464             1.989
                     304     8 Jan 2018 23:21:42.439     8 Jan 2018 23:25:57.072           254.633
                     305     9 Jan 2018 17:37:56.842     9 Jan 2018 17:42:09.397           252.555
                     306     9 Jan 2018 22:29:54.639     9 Jan 2018 22:33:16.801           202.161
                     307    10 Jan 2018 00:06:23.666    10 Jan 2018 00:09:47.060           203.393
                     308    10 Jan 2018 16:46:09.604    10 Jan 2018 16:49:50.267           220.663
                     309    10 Jan 2018 18:22:58.295    10 Jan 2018 18:26:07.231           188.936
                     310    10 Jan 2018 21:39:06.005    10 Jan 2018 21:39:15.147             9.142
                     311    10 Jan 2018 23:13:56.491    10 Jan 2018 23:18:11.145           254.654
                     312    11 Jan 2018 17:30:10.931    11 Jan 2018 17:34:23.439           252.508
                     313    11 Jan 2018 22:22:08.633    11 Jan 2018 22:25:30.980           202.348
                     314    11 Jan 2018 23:58:37.846    12 Jan 2018 00:02:00.954           203.108
                     315    12 Jan 2018 16:38:23.537    12 Jan 2018 16:42:04.415           220.878
                     316    12 Jan 2018 18:15:12.491    12 Jan 2018 18:18:21.215           188.724
                     317    12 Jan 2018 21:31:18.301    12 Jan 2018 21:31:31.071            12.769
                     318    12 Jan 2018 23:06:10.543    12 Jan 2018 23:10:25.218           254.675
                     319    13 Jan 2018 17:22:25.020    13 Jan 2018 17:26:37.481           252.461
                     320    13 Jan 2018 22:14:22.627    13 Jan 2018 22:17:45.160           202.533
                     321    13 Jan 2018 23:50:52.026    13 Jan 2018 23:54:14.847           202.822
                     322    14 Jan 2018 16:30:37.470    14 Jan 2018 16:34:18.562           221.092
                     323    14 Jan 2018 18:07:26.687    14 Jan 2018 18:10:35.199           188.512
                     324    14 Jan 2018 21:23:31.005    14 Jan 2018 21:23:46.577            15.573
                     325    14 Jan 2018 22:58:24.595    14 Jan 2018 23:02:39.291           254.695
                     326    15 Jan 2018 17:14:39.110    15 Jan 2018 17:18:51.524           252.414
                     327    15 Jan 2018 22:06:36.621    15 Jan 2018 22:09:59.341           202.720
                     328    15 Jan 2018 23:43:06.207    15 Jan 2018 23:46:28.741           202.534
                     329    16 Jan 2018 16:22:51.405    16 Jan 2018 16:26:32.709           221.304
                     330    16 Jan 2018 17:59:40.883    16 Jan 2018 18:02:49.183           188.300
                     331    16 Jan 2018 21:15:43.926    16 Jan 2018 21:16:01.875            17.949
                     332    16 Jan 2018 22:50:38.648    16 Jan 2018 22:54:53.363           254.715
                     333    17 Jan 2018 17:06:53.199    17 Jan 2018 17:11:05.566           252.367
                     334    17 Jan 2018 21:58:50.615    17 Jan 2018 22:02:13.521           202.905
                     335    17 Jan 2018 23:35:20.388    17 Jan 2018 23:38:42.633           202.245
                     336    18 Jan 2018 16:15:05.339    18 Jan 2018 16:18:46.856           221.516
                     337    18 Jan 2018 17:51:55.079    18 Jan 2018 17:55:03.167           188.087
                     338    18 Jan 2018 21:07:56.981    18 Jan 2018 21:08:17.031            20.050
                     339    18 Jan 2018 22:42:52.701    18 Jan 2018 22:47:07.436           254.735
                     340    19 Jan 2018 16:59:07.290    19 Jan 2018 17:03:19.609           252.319
                     341    19 Jan 2018 21:51:04.610    19 Jan 2018 21:54:27.700           203.091
                     342    19 Jan 2018 23:27:34.570    19 Jan 2018 23:30:56.525           201.955
                     343    20 Jan 2018 16:07:19.275    20 Jan 2018 16:11:01.001           221.727
                     344    20 Jan 2018 17:44:09.276    20 Jan 2018 17:47:17.150           187.875
                     345    20 Jan 2018 21:00:10.134    20 Jan 2018 21:00:32.093            21.959
                     346    20 Jan 2018 22:35:06.753    20 Jan 2018 22:39:21.508           254.755
                     347    21 Jan 2018 16:51:21.382    21 Jan 2018 16:55:33.651           252.269
                     348    21 Jan 2018 21:43:18.604    21 Jan 2018 21:46:41.880           203.276
                     349    21 Jan 2018 23:19:48.753    21 Jan 2018 23:23:10.416           201.663
                     350    22 Jan 2018 15:59:33.210    22 Jan 2018 16:03:15.147           221.936
                     351    22 Jan 2018 17:36:23.472    22 Jan 2018 17:39:31.134           187.662
                     352    22 Jan 2018 20:52:23.362    22 Jan 2018 20:52:47.078            23.716
                     353    22 Jan 2018 22:27:20.806    22 Jan 2018 22:31:35.580           254.774
                     354    23 Jan 2018 16:43:35.472    23 Jan 2018 16:47:47.692           252.220
                     355    23 Jan 2018 21:35:32.598    23 Jan 2018 21:38:56.058           203.461
                     356    23 Jan 2018 23:12:02.936    23 Jan 2018 23:15:24.306           201.370
                     357    24 Jan 2018 15:51:47.146    24 Jan 2018 15:55:29.292           222.146
                     358    24 Jan 2018 17:28:37.669    24 Jan 2018 17:31:45.117           187.448
                     359    24 Jan 2018 20:44:36.651    24 Jan 2018 20:45:02.001            25.349
                     360    24 Jan 2018 22:19:34.859    24 Jan 2018 22:23:49.651           254.792
                     361    25 Jan 2018 16:35:49.562    25 Jan 2018 16:40:01.734           252.172
                     362    25 Jan 2018 21:27:46.592    25 Jan 2018 21:31:10.237           203.645
                     363    25 Jan 2018 23:04:17.119    25 Jan 2018 23:07:38.193           201.074
                     364    26 Jan 2018 15:44:01.082    26 Jan 2018 15:47:43.436           222.354
                     365    26 Jan 2018 17:20:51.867    26 Jan 2018 17:23:59.097           187.230
                     366    26 Jan 2018 20:36:49.992    26 Jan 2018 20:37:16.875            26.883
                     367    26 Jan 2018 22:11:48.912    26 Jan 2018 22:16:03.722           254.810
                     368    27 Jan 2018 16:28:03.653    27 Jan 2018 16:32:15.775           252.122
                     369    27 Jan 2018 21:20:00.587    27 Jan 2018 21:23:24.418           203.831
                     370    27 Jan 2018 22:56:31.303    27 Jan 2018 22:59:52.082           200.779
                     371    28 Jan 2018 15:36:15.019    28 Jan 2018 15:39:57.581           222.562
                     372    28 Jan 2018 17:13:06.065    28 Jan 2018 17:16:13.080           187.015
                     373    28 Jan 2018 20:29:03.378    28 Jan 2018 20:29:31.700            28.322
                     374    28 Jan 2018 22:04:02.965    28 Jan 2018 22:08:17.793           254.828
                     375    29 Jan 2018 16:20:17.744    29 Jan 2018 16:24:29.817           252.073
                     376    29 Jan 2018 21:12:14.582    29 Jan 2018 21:15:38.596           204.014
                     377    29 Jan 2018 22:48:45.488    29 Jan 2018 22:52:05.971           200.483
                     378    30 Jan 2018 15:28:28.957    30 Jan 2018 15:32:11.725           222.768
                     379    30 Jan 2018 17:05:20.263    30 Jan 2018 17:08:27.063           186.800
                     380    30 Jan 2018 20:21:16.795    30 Jan 2018 20:21:46.498            29.702
                     381    30 Jan 2018 21:56:17.019    30 Jan 2018 22:00:31.865           254.846
                     382    31 Jan 2018 16:12:31.837    31 Jan 2018 16:16:43.859           252.022
                     383    31 Jan 2018 21:04:28.578    31 Jan 2018 21:07:52.775           204.197
                     384    31 Jan 2018 22:40:59.673    31 Jan 2018 22:44:19.859           200.186
                     385     1 Feb 2018 15:20:42.895     1 Feb 2018 15:24:25.869           222.974
                     386     1 Feb 2018 16:57:34.463     1 Feb 2018 17:00:41.046           186.583
                     387     1 Feb 2018 20:13:30.240     1 Feb 2018 20:14:01.266            31.026
                     388     1 Feb 2018 21:48:31.073     1 Feb 2018 21:52:45.935           254.863
                     389     2 Feb 2018 16:04:45.928     2 Feb 2018 16:08:57.900           251.972
                     390     2 Feb 2018 20:56:42.573     2 Feb 2018 21:00:06.953           204.380
                     391     2 Feb 2018 22:33:13.859     2 Feb 2018 22:36:33.744           199.885
                     392     3 Feb 2018 15:12:56.834     3 Feb 2018 15:16:40.014           223.179
                     393     3 Feb 2018 16:49:48.661     3 Feb 2018 16:52:55.029           186.368
                     394     3 Feb 2018 20:05:43.711     3 Feb 2018 20:06:16.011            32.299
                     395     3 Feb 2018 21:40:45.127     3 Feb 2018 21:45:00.006           254.879
                     396     4 Feb 2018 15:57:00.021     4 Feb 2018 16:01:11.941           251.921
                     397     4 Feb 2018 20:48:56.567     4 Feb 2018 20:52:21.131           204.563
                     398     4 Feb 2018 22:25:28.046     4 Feb 2018 22:28:47.632           199.586
                     399     5 Feb 2018 15:05:10.773     5 Feb 2018 15:08:54.156           223.383
                     400     5 Feb 2018 16:42:02.859     5 Feb 2018 16:45:09.012           186.153
                     401     5 Feb 2018 19:57:57.206     5 Feb 2018 19:58:30.729            33.523
                     402     5 Feb 2018 21:32:59.180     5 Feb 2018 21:37:14.076           254.896
                     403     6 Feb 2018 15:49:14.113     6 Feb 2018 15:53:25.982           251.869
                     404     6 Feb 2018 20:41:10.562     6 Feb 2018 20:44:35.308           204.746
                     405     6 Feb 2018 22:17:42.233     6 Feb 2018 22:21:01.517           199.284
                     406     7 Feb 2018 14:57:24.712     7 Feb 2018 15:01:08.298           223.586
                     407     7 Feb 2018 16:34:17.057     7 Feb 2018 16:37:22.994           185.936
                     408     7 Feb 2018 19:50:10.725     7 Feb 2018 19:50:45.424            34.700
                     409     7 Feb 2018 21:25:13.234     7 Feb 2018 21:29:28.145           254.911
                     410     8 Feb 2018 15:41:28.205     8 Feb 2018 15:45:40.022           251.817
                     411     8 Feb 2018 20:33:24.557     8 Feb 2018 20:36:49.485           204.928
                     412     8 Feb 2018 22:09:56.420     8 Feb 2018 22:13:15.401           198.981
                     413     9 Feb 2018 14:49:38.652     9 Feb 2018 14:53:22.439           223.788
                     414     9 Feb 2018 16:26:31.256     9 Feb 2018 16:29:36.976           185.719
                     415     9 Feb 2018 19:42:24.261     9 Feb 2018 19:43:00.100            35.839
                     416     9 Feb 2018 21:17:27.288     9 Feb 2018 21:21:42.215           254.927
                     417    10 Feb 2018 15:33:42.297    10 Feb 2018 15:37:54.063           251.766
                     418    10 Feb 2018 20:25:38.553    10 Feb 2018 20:29:03.662           205.109
                     419    10 Feb 2018 22:02:10.608    10 Feb 2018 22:05:29.285           198.676
                     420    11 Feb 2018 14:41:52.592    11 Feb 2018 14:45:36.583           223.992
                     421    11 Feb 2018 16:18:45.456    11 Feb 2018 16:21:50.958           185.502
                     422    11 Feb 2018 19:34:37.813    11 Feb 2018 19:35:14.756            36.943
                     423    11 Feb 2018 21:09:41.342    11 Feb 2018 21:13:56.284           254.942
                     424    12 Feb 2018 15:25:56.390    12 Feb 2018 15:30:08.104           251.714
                     425    12 Feb 2018 20:17:52.549    12 Feb 2018 20:21:17.839           205.290
                     426    12 Feb 2018 21:54:24.797    12 Feb 2018 21:57:43.168           198.371
                     427    13 Feb 2018 14:34:06.533    13 Feb 2018 14:37:50.725           224.192
                     428    13 Feb 2018 16:10:59.655    13 Feb 2018 16:14:04.940           185.285
                     429    13 Feb 2018 19:26:51.383    13 Feb 2018 19:27:29.400            38.017
                     430    13 Feb 2018 21:01:55.397    13 Feb 2018 21:06:10.354           254.957
                     431    14 Feb 2018 15:18:10.483    14 Feb 2018 15:22:22.144           251.662
                     432    14 Feb 2018 20:10:06.545    14 Feb 2018 20:13:32.016           205.471
                     433    14 Feb 2018 21:46:38.987    14 Feb 2018 21:49:57.052           198.065
                     434    15 Feb 2018 14:26:20.474    15 Feb 2018 14:30:04.866           224.391
                     435    15 Feb 2018 16:03:13.854    15 Feb 2018 16:06:18.922           185.067
                     436    15 Feb 2018 19:19:04.967    15 Feb 2018 19:19:44.030            39.063
                     437    15 Feb 2018 20:54:09.452    15 Feb 2018 20:58:24.423           254.971
                     438    16 Feb 2018 15:10:24.576    16 Feb 2018 15:14:36.185           251.609
                     439    16 Feb 2018 20:02:20.540    16 Feb 2018 20:05:46.193           205.652
                     440    16 Feb 2018 21:38:53.177    16 Feb 2018 21:42:10.934           197.758
                     441    17 Feb 2018 14:18:34.416    17 Feb 2018 14:22:19.006           224.590
                     442    17 Feb 2018 15:55:28.056    17 Feb 2018 15:58:32.904           184.847
                     443    17 Feb 2018 19:11:18.561    17 Feb 2018 19:11:58.649            40.088
                     444    17 Feb 2018 20:46:23.506    17 Feb 2018 20:50:38.491           254.985
                     445    18 Feb 2018 15:02:38.669    18 Feb 2018 15:06:50.225           251.556
                     446    18 Feb 2018 19:54:34.536    18 Feb 2018 19:58:00.369           205.833
                     447    18 Feb 2018 21:31:07.367    18 Feb 2018 21:34:24.816           197.448
                     448    19 Feb 2018 14:10:48.359    19 Feb 2018 14:14:33.146           224.787
                     449    19 Feb 2018 15:47:42.256    19 Feb 2018 15:50:46.885           184.630
                     450    19 Feb 2018 19:03:32.169    19 Feb 2018 19:04:13.257            41.088
                     451    19 Feb 2018 20:38:37.561    19 Feb 2018 20:42:52.559           254.999
                     452    20 Feb 2018 14:54:52.762    20 Feb 2018 14:59:04.265           251.503
                     453    20 Feb 2018 19:46:48.532    20 Feb 2018 19:50:14.545           206.014
                     454    20 Feb 2018 21:23:21.559    20 Feb 2018 21:26:38.696           197.138
                     455    21 Feb 2018 14:03:02.301    21 Feb 2018 14:06:47.286           224.985
                     456    21 Feb 2018 15:39:56.456    21 Feb 2018 15:43:00.866           184.411
                     457    21 Feb 2018 18:55:45.788    21 Feb 2018 18:56:27.848            42.060
                     458    21 Feb 2018 20:30:51.615    21 Feb 2018 20:35:06.627           255.012
                     459    22 Feb 2018 14:47:06.855    22 Feb 2018 14:51:18.302           251.447
                     460    22 Feb 2018 19:39:02.528    22 Feb 2018 19:42:28.721           206.193
                     461    22 Feb 2018 21:15:35.750    22 Feb 2018 21:18:52.576           196.826
                     462    23 Feb 2018 13:55:16.244    23 Feb 2018 13:59:01.425           225.181
                     463    23 Feb 2018 15:32:10.656    23 Feb 2018 15:35:14.847           184.191
                     464    23 Feb 2018 18:47:59.420    23 Feb 2018 18:48:42.428            43.008
                     465    23 Feb 2018 20:23:05.670    23 Feb 2018 20:27:20.695           255.024
                     466    24 Feb 2018 14:39:20.949    24 Feb 2018 14:43:32.342           251.392
                     467    24 Feb 2018 19:31:16.524    24 Feb 2018 19:34:42.898           206.374
                     468    24 Feb 2018 21:07:49.942    24 Feb 2018 21:11:06.456           196.513
                     469    25 Feb 2018 13:47:30.187    25 Feb 2018 13:51:15.564           225.377
                     470    25 Feb 2018 15:24:24.857    25 Feb 2018 15:27:28.828           183.971
                     471    25 Feb 2018 18:40:13.063    25 Feb 2018 18:40:56.997            43.933
                     472    25 Feb 2018 20:15:19.726    25 Feb 2018 20:19:34.762           255.037
                     473    26 Feb 2018 14:31:35.044    26 Feb 2018 14:35:46.381           251.338
                     474    26 Feb 2018 19:23:30.521    26 Feb 2018 19:26:57.074           206.553
                     475    26 Feb 2018 21:00:04.135    26 Feb 2018 21:03:20.330           196.195
                     476    27 Feb 2018 13:39:44.132    27 Feb 2018 13:43:29.705           225.573
                     477    27 Feb 2018 15:16:39.058    27 Feb 2018 15:19:42.809           183.751
                     478    27 Feb 2018 18:32:26.715    27 Feb 2018 18:33:11.556            44.840
                     479    27 Feb 2018 20:07:33.781    27 Feb 2018 20:11:48.830           255.049
                     480    28 Feb 2018 14:23:49.141    28 Feb 2018 14:28:00.421           251.280
                     481    28 Feb 2018 19:15:44.517    28 Feb 2018 19:19:11.249           206.732
                     482    28 Feb 2018 20:52:18.329    28 Feb 2018 20:55:34.208           195.879
                     483     1 Mar 2018 13:31:58.077     1 Mar 2018 13:35:43.839           225.763
                     484     1 Mar 2018 15:08:53.259     1 Mar 2018 15:11:56.790           183.531
                     485     1 Mar 2018 18:24:40.374     1 Mar 2018 18:25:26.109            45.736
                     486     1 Mar 2018 19:59:47.837     1 Mar 2018 20:04:02.897           255.060
                     487     2 Mar 2018 14:16:03.235     2 Mar 2018 14:20:14.461           251.226
                     488     2 Mar 2018 19:07:58.514     2 Mar 2018 19:11:25.425           206.911
                     489     2 Mar 2018 20:44:32.523     2 Mar 2018 20:47:48.085           195.562
                     490     3 Mar 2018 13:24:12.022     3 Mar 2018 13:27:57.977           225.955
                     491     3 Mar 2018 15:01:07.462     3 Mar 2018 15:04:10.768           183.306
                     492     3 Mar 2018 18:16:54.039     3 Mar 2018 18:17:40.658            46.619
                     493     3 Mar 2018 19:52:01.893     3 Mar 2018 19:56:16.964           255.071
                     494     4 Mar 2018 14:08:17.330     4 Mar 2018 14:12:28.502           251.172
                     495     4 Mar 2018 19:00:12.510     4 Mar 2018 19:03:39.600           207.090
                     496     4 Mar 2018 20:36:46.718     4 Mar 2018 20:40:01.961           195.243
                     497     5 Mar 2018 13:16:25.967     5 Mar 2018 13:20:12.118           226.152
                     498     5 Mar 2018 14:53:21.663     5 Mar 2018 14:56:24.749           183.086
                     499     5 Mar 2018 18:09:07.717     5 Mar 2018 18:09:55.195            47.478
                     500     5 Mar 2018 19:44:15.948     5 Mar 2018 19:48:31.030           255.082
                     501     6 Mar 2018 14:00:31.425     6 Mar 2018 14:04:42.541           251.116
                     502     6 Mar 2018 18:52:26.507     6 Mar 2018 18:55:53.774           207.267
                     503     6 Mar 2018 20:29:00.913     6 Mar 2018 20:32:15.836           194.923
                     504     7 Mar 2018 13:08:39.912     7 Mar 2018 13:12:26.251           226.339
                     505     7 Mar 2018 14:45:35.865     7 Mar 2018 14:48:38.730           182.865
                     506     7 Mar 2018 18:01:21.400     7 Mar 2018 18:02:09.723            48.323
                     507     7 Mar 2018 19:36:30.004     7 Mar 2018 19:40:45.096           255.093
                     508     8 Mar 2018 13:52:45.518     8 Mar 2018 13:56:56.579           251.061
                     509     8 Mar 2018 18:44:40.503     8 Mar 2018 18:48:07.948           207.445
                     510     8 Mar 2018 20:21:15.109     8 Mar 2018 20:24:29.711           194.602
                     511     9 Mar 2018 13:00:53.858     9 Mar 2018 13:04:40.387           226.529
                     512     9 Mar 2018 14:37:50.067     9 Mar 2018 14:40:52.709           182.642
                     513     9 Mar 2018 17:53:35.089     9 Mar 2018 17:54:24.244            49.155
                     514     9 Mar 2018 19:28:44.060     9 Mar 2018 19:32:59.162           255.103
                     515    10 Mar 2018 13:44:59.617    10 Mar 2018 13:49:10.618           251.001
                     516    10 Mar 2018 18:36:54.498    10 Mar 2018 18:40:22.122           207.624
                     517    10 Mar 2018 20:13:29.306    10 Mar 2018 20:16:43.585           194.280
                     518    11 Mar 2018 12:53:07.805    11 Mar 2018 12:56:54.526           226.721
                     519    11 Mar 2018 14:30:04.268    11 Mar 2018 14:33:06.688           182.420
                     520    11 Mar 2018 17:45:48.789    11 Mar 2018 17:46:38.758            49.969
                     521    11 Mar 2018 19:20:58.116    11 Mar 2018 19:25:13.228           255.112
                     522    12 Mar 2018 13:37:13.710    12 Mar 2018 13:41:24.657           250.947
                     523    12 Mar 2018 18:29:08.495    12 Mar 2018 18:32:36.296           207.801
                     524    12 Mar 2018 20:05:43.503    12 Mar 2018 20:08:57.459           193.956
                     525    13 Mar 2018 12:45:21.752    13 Mar 2018 12:49:08.665           226.913
                     526    13 Mar 2018 14:22:18.471    13 Mar 2018 14:25:20.668           182.197
                     527    13 Mar 2018 17:38:02.493    13 Mar 2018 17:38:53.267            50.774
                     528    13 Mar 2018 19:13:12.172    13 Mar 2018 19:17:27.294           255.121
                     529    14 Mar 2018 13:29:27.807    14 Mar 2018 13:33:38.696           250.889
                     530    14 Mar 2018 18:21:22.493    14 Mar 2018 18:24:50.470           207.978
                     531    14 Mar 2018 19:57:57.701    14 Mar 2018 20:01:11.332           193.630
                     532    15 Mar 2018 12:37:35.700    15 Mar 2018 12:41:22.801           227.101
                     533    15 Mar 2018 14:14:32.674    15 Mar 2018 14:17:34.648           181.974
                     534    15 Mar 2018 17:30:16.200    15 Mar 2018 17:31:07.771            51.571
                     535    15 Mar 2018 19:05:26.229    15 Mar 2018 19:09:41.359           255.130
                     536    16 Mar 2018 13:21:41.906    16 Mar 2018 13:25:52.735           250.829
                     537    16 Mar 2018 18:13:36.490    16 Mar 2018 18:17:04.644           208.154
                     538    16 Mar 2018 19:50:11.897    16 Mar 2018 19:53:25.203           193.306
                     539    17 Mar 2018 12:29:49.648    17 Mar 2018 12:33:36.937           227.288
                     540    17 Mar 2018 14:06:46.876    17 Mar 2018 14:09:48.628           181.751
                     541    17 Mar 2018 17:22:29.910    17 Mar 2018 17:23:22.270            52.359
                     542    17 Mar 2018 18:57:40.285    17 Mar 2018 19:01:55.424           255.139
                     543    18 Mar 2018 13:13:55.999    18 Mar 2018 13:18:06.773           250.773
                     544    18 Mar 2018 18:05:50.487    18 Mar 2018 18:09:18.814           208.327
                     545    18 Mar 2018 19:42:26.096    18 Mar 2018 19:45:39.074           192.977
                     546    19 Mar 2018 12:22:03.597    19 Mar 2018 12:25:51.072           227.475
                     547    19 Mar 2018 13:59:01.080    19 Mar 2018 14:02:02.605           181.526
                     548    19 Mar 2018 17:14:43.629    19 Mar 2018 17:15:36.764            53.136
                     549    19 Mar 2018 18:49:54.342    19 Mar 2018 18:54:09.489           255.147
                     550    20 Mar 2018 13:06:10.096    20 Mar 2018 13:10:20.811           250.715
                     551    20 Mar 2018 17:58:04.484    20 Mar 2018 18:01:32.988           208.504
                     552    20 Mar 2018 19:34:40.296    20 Mar 2018 19:37:52.941           192.645
                     553    21 Mar 2018 12:14:17.545    21 Mar 2018 12:18:05.206           227.661
                     554    21 Mar 2018 13:51:15.283    21 Mar 2018 13:54:16.585           181.302
                     555    21 Mar 2018 17:06:57.357    21 Mar 2018 17:07:51.250            53.893
                     556    21 Mar 2018 18:42:08.399    21 Mar 2018 18:46:23.553           255.154
                     557    22 Mar 2018 12:58:24.193    22 Mar 2018 13:02:34.848           250.656
                     558    22 Mar 2018 17:50:18.482    22 Mar 2018 17:53:47.159           208.677
                     559    22 Mar 2018 19:26:54.496    22 Mar 2018 19:30:06.811           192.314
                     560    23 Mar 2018 12:06:31.494    23 Mar 2018 12:10:19.341           227.846
                     561    23 Mar 2018 13:43:29.487    23 Mar 2018 13:46:30.562           181.075
                     562    23 Mar 2018 16:59:11.091    23 Mar 2018 17:00:05.728            54.638
                     563    23 Mar 2018 18:34:22.455    23 Mar 2018 18:38:37.617           255.162
                     564    24 Mar 2018 12:50:38.290    24 Mar 2018 12:54:48.886           250.596
                     565    24 Mar 2018 17:42:32.480    24 Mar 2018 17:46:01.333           208.853
                     566    24 Mar 2018 19:19:08.697    24 Mar 2018 19:22:20.680           191.982
                     567    25 Mar 2018 11:58:45.444    25 Mar 2018 12:02:33.475           228.031
                     568    25 Mar 2018 13:35:43.692    25 Mar 2018 13:38:44.542           180.850
                     569    25 Mar 2018 16:51:24.827    25 Mar 2018 16:52:20.203            55.376
                     570    25 Mar 2018 18:26:36.513    25 Mar 2018 18:30:51.681           255.168
                     571    26 Mar 2018 12:42:52.388    26 Mar 2018 12:47:02.924           250.536
                     572    26 Mar 2018 17:34:46.478    26 Mar 2018 17:38:15.504           209.026
                     573    26 Mar 2018 19:11:22.899    26 Mar 2018 19:14:34.548           191.649
                     574    27 Mar 2018 11:50:59.395    27 Mar 2018 11:54:47.609           228.214
                     575    27 Mar 2018 13:27:57.897    27 Mar 2018 13:30:58.521           180.624
                     576    27 Mar 2018 16:43:38.569    27 Mar 2018 16:44:34.674            56.105
                     577    27 Mar 2018 18:18:50.570    27 Mar 2018 18:23:05.745           255.175
                     578    28 Mar 2018 12:35:06.491    28 Mar 2018 12:39:16.962           250.472
                     579    28 Mar 2018 17:27:00.476    28 Mar 2018 17:30:29.676           209.200
                     580    28 Mar 2018 19:03:37.102    28 Mar 2018 19:06:48.416           191.314
                     581    29 Mar 2018 11:43:13.346    29 Mar 2018 11:47:01.738           228.392
                     582    29 Mar 2018 13:20:12.101    29 Mar 2018 13:23:12.499           180.397
                     583    29 Mar 2018 16:35:52.311    29 Mar 2018 16:36:49.141            56.830
                     584    29 Mar 2018 18:11:04.628    29 Mar 2018 18:15:19.809           255.181
                     585    30 Mar 2018 12:27:20.584    30 Mar 2018 12:31:31.000           250.416
                     586    30 Mar 2018 17:19:14.474    30 Mar 2018 17:22:43.853           209.378
                     587    30 Mar 2018 18:55:51.306    30 Mar 2018 18:59:02.282           190.977
                     588    31 Mar 2018 11:35:27.297    31 Mar 2018 11:39:15.873           228.576
                     589    31 Mar 2018 13:12:26.306    31 Mar 2018 13:15:26.479           180.173
                     590    31 Mar 2018 16:28:06.059    31 Mar 2018 16:29:03.604            57.545
                     591    31 Mar 2018 18:03:18.685    31 Mar 2018 18:07:33.872           255.186
                     592     1 Apr 2018 12:19:34.682     1 Apr 2018 12:23:45.037           250.355
                     593     1 Apr 2018 17:11:28.472     1 Apr 2018 17:14:58.024           209.552
                     594     1 Apr 2018 18:48:05.510     1 Apr 2018 18:51:16.147           190.637
                     595     2 Apr 2018 11:27:41.248     2 Apr 2018 11:31:30.006           228.758
                     596     2 Apr 2018 13:04:40.511     2 Apr 2018 13:07:40.455           179.944
                     597     2 Apr 2018 16:20:19.808     2 Apr 2018 16:21:18.062            58.254
                     598     2 Apr 2018 17:55:32.743     2 Apr 2018 17:59:47.934           255.192
                     599     3 Apr 2018 12:11:48.784     3 Apr 2018 12:15:59.074           250.290
                     600     3 Apr 2018 17:03:42.470     3 Apr 2018 17:07:12.191           209.721
                     601     3 Apr 2018 18:40:19.715     3 Apr 2018 18:43:30.012           190.297
